,title,street,city,country_code,address_text,marker_icon,remote,company_name,company_url,company_size,experience_level,salary_from,salary_to,salary_currency,latitude,longitude,employment_type,published_at,remote_interview,id,company_logo_url,skills
0,Senior Full Stack Dev (Gaming sector),"Al. Piastów, 22",Szczecin,PL,"Al. Piastów, 22, Szczecin",javascript,False,Red Sky,http://www.praca.red-sky.pl,50-100,senior,12000.0,15000.0,pln,53.4210072,14.5337496,b2b,2020-05-14 07:35:31.911000+00:00,True,red-sky-senior-full-stack-dev-gaming-sector,https://bucket.justjoin.it/offers/company_logos/thumb/03885910c451ed4e6d6c482259c7e8b49ccf51ac.png?1589441665,"[{'name': 'TypeScript', 'level': 4}, {'name': 'Node.js', 'level': 4}, {'name': 'JavaScript', 'level': 4}]"
1,Software Engineer (Frontend Focus),Prosta 20,Warszawa,PL,"Prosta 20, Warszawa",javascript,False,FRIDAY Technology,https://www.friday.de/,80,mid,12000.0,18000.0,pln,52.2324125,20.9928657,permanent,2020-05-14 07:07:00+00:00,True,friday-technology-software-engineer-frontend-focus,https://bucket.justjoin.it/offers/company_logos/thumb/6462b56e0748a47d0aa1a7f2998cbabca0919e32.jpg?1589439877,"[{'name': 'REST', 'level': 5}, {'name': 'TypeScript', 'level': 5}, {'name': 'React', 'level': 5}]"
2,C++ Developer,Aleksandra Ostrowskiego 13,Wrocław,PL,"Aleksandra Ostrowskiego 13, Wrocław",c,False,xBerry Sp. z o.o.,https://xberry.tech/,10-20,mid,10000.0,16000.0,pln,51.0957093,16.9741348,b2b,2020-05-14 07:00:07.268000+00:00,True,xberry-sp-z-o-o-c-developer-wroclaw,https://bucket.justjoin.it/offers/company_logos/thumb/c3ad3f64e04e6a2e50158a0c0e1fe205cff51ab7.png?1582793265,"[{'name': 'Linux', 'level': 3}, {'name': 'Qt', 'level': 3}, {'name': 'C++', 'level': 3}]"
3,iOS Developer,Beliny 60,Kraków,PL,"Beliny 60, Kraków",mobile,False,MedApp S.A.,http://www.medapp.pl,20-30,mid,,,,50.0728321,19.9584159,b2b,2020-05-14 07:00:07.268000+00:00,True,medapp-s-a-ios-developer,https://bucket.justjoin.it/offers/company_logos/thumb/755ae6e0b53b6babb80c1814b23441378c31c9d8.png?1586847349,"[{'name': 'Git', 'level': 3}, {'name': 'XCode', 'level': 3}, {'name': 'Swift', 'level': 3}]"
4,C++ Developer,Beliny 60,Kraków,PL,"Beliny 60, Kraków",c,False,MedApp S.A.,http://www.medapp.pl,20-30,mid,,,,50.0728321,19.9584159,b2b,2020-05-14 07:00:07.268000+00:00,True,medapp-s-a-c-developer,https://bucket.justjoin.it/offers/company_logos/thumb/ec1066be95b5946bdb2ce76b4525a1667377865a.png?1586847640,"[{'name': 'Git', 'level': 3}, {'name': 'Microsoft Visual Studio', 'level': 3}, {'name': 'C++', 'level': 3}]"
5,Senior Java Developer,Józefa Marjańskiego 3,Białystok,PL,"Józefa Marjańskiego 3, Białystok",java,True,Calamari,https://calamari.io/,10-25,senior,12000.0,18000.0,pln,53.1296096,23.1549146,b2b,2020-05-13 22:00:06.439000+00:00,True,calamari-java-developer,https://bucket.justjoin.it/offers/company_logos/thumb/e29811506064de99976537f6d54532a12e0726b9.jpg?1582294299,"[{'name': 'JUnit', 'level': 5}, {'name': 'Spring', 'level': 5}, {'name': 'Java', 'level': 5}]"
6,PM assistant / QA,Lema 13,Gdańsk,PL,"Lema 13, Gdańsk",testing,False,Interactivo,http://interactivo.pl,1-10,junior,3500.0,5500.0,pln,54.3493973,18.5930461,permanent,2020-05-13 21:36:00+00:00,True,interactivo-pm-assistant-qa,https://bucket.justjoin.it/offers/company_logos/thumb/1857195472b26cb3f50167c721900f1221e32232.png?1589405651,"[{'name': 'Manual Testing', 'level': 2}, {'name': 'QA', 'level': 2}]"
7,Tech Lead/Android Developer,Puławska 2,Warszawa,PL,"Puławska 2, Warszawa",mobile,False,Neontri,https://neontri.com,40+,senior,18000.0,20000.0,pln,52.2127999,21.0198304,b2b,2020-05-13 20:00:07.094000+00:00,True,neontri-tech-lead-android-developer,https://bucket.justjoin.it/offers/company_logos/thumb/51cbb2736531253afa5f8f4a50a6a9653147524e.png?1588535512,"[{'name': 'Android Studio', 'level': 4}, {'name': 'Android SDK', 'level': 5}, {'name': 'Java', 'level': 5}]"
8,Java Backend Developer,Puławska 2,Warszawa,PL,"Puławska 2, Warszawa",java,True,Neontri,https://neontri.com,40+,senior,14000.0,18000.0,pln,52.1398536,21.0181888,b2b,2020-05-13 19:38:00+00:00,True,neontri-java-backend-developer,https://bucket.justjoin.it/offers/company_logos/thumb/4f61d9842c672804e9575a9401ff0a7e7ec5145f.png?1589398589,"[{'name': 'Hibernate', 'level': 4}, {'name': 'Spring 4', 'level': 4}, {'name': 'Java 8', 'level': 4}]"
9,Analityk Hurtowni Danych,Mokotów,Warszawa,PL,"Mokotów, Warszawa",data,False,7N,https://www.7n.com,700+,mid,15120.0,20160.0,pln,52.194157,21.0346955,b2b,2020-05-13 18:00:06.769000+00:00,True,7n-analityk-hurtowni-danych,https://bucket.justjoin.it/offers/company_logos/thumb/ce7e7fee24712a3411f131721018f763978cef42.png?1585916899,"[{'name': 'PL/SQL', 'level': 1}, {'name': 'SQL', 'level': 3}]"
10,Tester manualny,Wioślarska 8,Warszawa,PL,"Wioślarska 8, Warszawa",testing,False,Cloud Best Sp. z o.o.,https://www.minebest.com/,80,mid,6000.0,10000.0,pln,52.2334907,21.039439,permanent,2020-05-13 17:00:06.621000+00:00,True,cloud-best-sp-z-o-o-tester,https://bucket.justjoin.it/offers/company_logos/thumb/e6b94091f77923627d715eee29d759236a25d41a.png?1580116823,"[{'name': 'Java', 'level': 3}, {'name': 'PHP', 'level': 3}, {'name': 'Python', 'level': 3}]"
11,.NET Core Developer in Test,E1W 1UN,London,GB,"E1W 1UN, London",net,True,Nethermind,http://nethermind.io/,6,junior,1250.0,1750.0,usd,51.5075933,-0.0735328,b2b,2020-05-13 17:00:06.621000+00:00,True,nethermind-net-core-developer-in-test,https://bucket.justjoin.it/offers/company_logos/thumb/09bbc168bd343b6e1702d2352b6d79253e46a394.png?1585499757,"[{'name': 'C#', 'level': 2}, {'name': '.NET Core', 'level': 2}, {'name': 'English', 'level': 4}]"
12,Quality Assurance Engineer,r. Matecznego,Kraków,PL,"r. Matecznego, Kraków",testing,False,Branchspace sp. z o.o.,http://branchspace.com/,30+,mid,9000.0,17000.0,pln,50.0345013,19.9322789,b2b,2020-05-13 17:00:06.621000+00:00,True,branchspace-sp-z-o-o-quality-assurance-engineer,https://bucket.justjoin.it/offers/company_logos/thumb/d5bf23fc0c215d513fbfd0f4069f901fd14d327e.png?1585757020,"[{'name': 'Cucumber', 'level': 3}, {'name': 'English', 'level': 4}, {'name': 'JIRA', 'level': 4}]"
13,Senior Javascript Developer,Willow Court,Londyn,GB,"Willow Court, Londyn",javascript,True,Leadingtek,http://www.linkedin.com/company/leadingtek/about/,0-5,senior,14000.0,17000.0,pln,51.5251798,-0.0827563,b2b,2020-05-13 17:00:06.621000+00:00,True,leadingtek-senior-javascript-developer,https://bucket.justjoin.it/offers/company_logos/thumb/67cd79c91160b42b7ea5b90ab4bc568cd50f99c9.png?1587506902,"[{'name': 'Git', 'level': 4}, {'name': 'Node.js', 'level': 4}, {'name': 'JavaScript', 'level': 4}]"
14,Java Developer,Paderewskiego,Poznań,PL,"Paderewskiego, Poznań",java,False,Pointpack,https://www.pointpack.pl/,35,mid,7000.0,13000.0,pln,52.4078563,16.9305354,permanent,2020-05-13 17:00:06.621000+00:00,False,pointpack-mid-senior-java-developer,https://bucket.justjoin.it/offers/company_logos/thumb/6373a9555eb947dba0a84eee1a98f3a33cb83c15.png?1585069971,"[{'name': 'Hibernate', 'level': 3}, {'name': 'Spring', 'level': 4}, {'name': 'Java 11', 'level': 4}]"
15,.NET Developer,"ul. Szczepańska, 7",Kraków,PL,"ul. Szczepańska, 7, Kraków",net,False,Humeo Recruitment,http://humeo.pl,30+,mid,8000.0,15000.0,pln,50.0632203,19.9362473,permanent,2020-05-13 16:00:09.344000+00:00,True,humeo-recruitment-net-developer-c870bfbf-23c5-419f-ad1b-ecb0fc9708d5,https://bucket.justjoin.it/offers/company_logos/thumb/2b072c08275402778a6aac30692b96f55752b8dd.png?1585062894,"[{'name': 'WCF', 'level': 3}, {'name': 'WPF', 'level': 3}, {'name': '.Net', 'level': 4}]"
16,DevOps/IT Admin,Lirowa 13,Warszawa,PL,"Lirowa 13, Warszawa",devops,True,Eversis sp. z o.o.,http://www.eversis.com,80+,mid,9000.0,14000.0,pln,52.1991547,20.9630695,b2b,2020-05-13 16:00:09.344000+00:00,True,eversis-sp-z-o-o-devops-it-admin,https://bucket.justjoin.it/offers/company_logos/thumb/76cf0334f5c223052af322e245f49fd95ea93d02.jpg?1588077279,"[{'name': 'Apache', 'level': 4}, {'name': 'Tomcat', 'level': 4}, {'name': 'Linux', 'level': 4}]"
17,Front-end Developer,Mostowa 11,Poznań,PL,"Mostowa 11, Poznań",javascript,False,SNOW.DOG,https://snow.dog,70+,mid,6000.0,10000.0,pln,52.404564,16.940617,b2b,2020-05-13 15:00:06.939000+00:00,True,snow-dog-front-end-developer-poznan,https://bucket.justjoin.it/offers/company_logos/thumb/3ef9406d35c260ed4d44b8abda8410ad7e48b889.png?1582894730,"[{'name': 'Vue.js', 'level': 3}, {'name': 'JavaScript', 'level': 4}, {'name': 'HTML5', 'level': 5}]"
18,Senior/Lead Server-side Engineer,Heweliusza 11,Gdańsk,PL,"Heweliusza 11, Gdańsk",devops,True,Sheepyard,http://www.sheepyard.pl,15-20,senior,12000.0,18000.0,pln,54.3564161,18.6501469,b2b,2020-05-13 15:00:06.939000+00:00,True,sheepyard-senior-lead-server-side-engineer,https://bucket.justjoin.it/offers/company_logos/thumb/fb3b81a2b075c51212b8a8a8e30e739f5264a48d.png?1585923373,"[{'name': 'MongoDB', 'level': 3}, {'name': 'Node.js', 'level': 4}, {'name': 'NoSQL', 'level': 4}]"
19,Software Tester,Oliwa/Przymorze,Gdańsk,PL,"Oliwa/Przymorze, Gdańsk",testing,False,Plenti,http://www.plenti.pl,100+,mid,8400.0,9450.0,pln,54.4110465,18.598796,b2b,2020-05-13 15:00:06.939000+00:00,True,plenti-software-tester,https://bucket.justjoin.it/offers/company_logos/thumb/c241fc68366be05bd5e3cfb702f3cec1e3b4103a.jpg?1585085054,"[{'name': 'Writing Test Scenarios', 'level': 3}, {'name': 'Testing', 'level': 3}, {'name': 'SQL', 'level': 3}]"
20,Senior Symfony Developer,Grójecka 1/3,Warszawa,PL,"Grójecka 1/3, Warszawa",php,True,Polcode,http://www.polcode.com,130+,senior,11000.0,14000.0,pln,52.2234107,20.9881385,b2b,2020-05-13 15:00:06.939000+00:00,True,polcode-senior-symfony-developer,https://bucket.justjoin.it/offers/company_logos/thumb/ac29e107b98265eb6be83b01fd182238e9d1f3ff.png?1588949407,"[{'name': 'Symfony 3', 'level': 5}, {'name': 'Symfony 4', 'level': 5}, {'name': 'PHP 7', 'level': 5}]"
21,Software Engineer,Aleja Walentego Roździeńskiego,Katowice,PL,"Aleja Walentego Roździeńskiego, Katowice",javascript,False,PubNub,http://www.pubnub.com,100 - 150,mid,16000.0,19000.0,pln,50.2700079,19.0605316,b2b,2020-05-13 15:00:06.939000+00:00,True,pubnub-software-engineer,https://bucket.justjoin.it/offers/company_logos/thumb/157fca6ff322adcc96fb4de398d2c9571a11434d.png?1585926048,"[{'name': 'React', 'level': 1}, {'name': 'Angular', 'level': 1}, {'name': 'JavaScript', 'level': 4}]"
22,JavaScript Realtime Framework Developer,Aleja Walentego Roździeńskiego,Katowice,PL,"Aleja Walentego Roździeńskiego, Katowice",javascript,False,PubNub,http://www.pubnub.com,100 - 150,mid,16000.0,19000.0,pln,50.2700079,19.0605316,b2b,2020-05-13 15:00:06.939000+00:00,True,pubnub-javascript-realtime-framework-developer,https://bucket.justjoin.it/offers/company_logos/thumb/2536a0af9aef997b8dabb0dc0d0ec7339f4edc5c.png?1581705589,"[{'name': 'React', 'level': 1}, {'name': 'TypeScript', 'level': 3}, {'name': 'JavaScript', 'level': 3}]"
23,SDK Engineer,Aleja Walentego Roździeńskiego,Katowice,PL,"Aleja Walentego Roździeńskiego, Katowice",javascript,False,PubNub,http://www.pubnub.com,100 - 150,senior,16000.0,19000.0,pln,50.2700079,19.0605316,b2b,2020-05-13 15:00:06.939000+00:00,True,pubnub-sdk-engineer,https://bucket.justjoin.it/offers/company_logos/thumb/06637506823df5a0d5f70755ea129a6dd5b54502.png?1585924738,"[{'name': 'closure', 'level': 1}, {'name': 'JVM', 'level': 1}, {'name': 'SDK', 'level': 5}]"
24,Full-stack (.NET + Angular) Developer,ul. Prosta 20,Warszawa,PL,"ul. Prosta 20, Warszawa",net,False,Margo,http://www.margo-group.com,300+,mid,16000.0,20000.0,pln,52.2324125,20.9928657,b2b,2020-05-13 15:00:06.939000+00:00,True,margo-full-stack-net-angular-developer-warszawa,https://bucket.justjoin.it/offers/company_logos/thumb/abc02b3292a658cdab7b895e4190fa995dd2dcb5.jpg?1568885914,"[{'name': 'MsSQL', 'level': 3}, {'name': 'ASP.NET MVC', 'level': 3}, {'name': '.NET C#', 'level': 3}]"
25,Senior Frontend Engineer,Krańcowa 5,Warszawa,PL,"Krańcowa 5, Warszawa",javascript,False,neptune.ai,https://neptune.ai,10-23,senior,12000.0,18000.0,pln,52.2026059,20.927796,b2b,2020-05-13 15:00:06.939000+00:00,True,neptune-ai-senior-frontend-engineer,https://bucket.justjoin.it/offers/company_logos/thumb/acaf35c92295ab66ee9e86f2611b389c1e0c7277.png?1581069009,"[{'name': 'Redux', 'level': 4}, {'name': 'ReactJS', 'level': 4}, {'name': 'JavaScript', 'level': 5}]"
26,Data Scientist,Aleksandra Ostrowskiego 13,Wrocław,PL,"Aleksandra Ostrowskiego 13, Wrocław",data,True,Stermedia,https://stermedia.ai/,11-50,mid,9000.0,13000.0,pln,51.0953935,16.9739955,b2b,2020-05-13 14:41:19.137000+00:00,True,stermedia-data-scientist,https://bucket.justjoin.it/offers/company_logos/thumb/13848c73e2b49d4737727afe5bd7814a8a68f753.png?1589380781,"[{'name': 'Pandas', 'level': 3}, {'name': 'NumPy', 'level': 3}, {'name': 'Machine Learning', 'level': 3}]"
27,React Developer,Prosta 36,Wrocław,PL,"Prosta 36, Wrocław",javascript,False,Callstack,https://callstack.com/,25-35,mid,10000.0,12000.0,pln,51.103192,17.0208402,b2b,2020-05-13 14:00:06.948000+00:00,True,callstack-react-native-developer-wroclaw,https://bucket.justjoin.it/offers/company_logos/thumb/bbde778b50a039848cad5f94534befd9ecbb9f64.png?1562755498,"[{'name': 'ReactJS', 'level': 3}, {'name': 'English', 'level': 4}, {'name': 'JavaScript', 'level': 4}]"
28,Senior Fullstack PHP Developer,Pl. Inwalidów 10,Warszawa,PL,"Pl. Inwalidów 10, Warszawa",php,True,ITSG,https://itsg-global.com/,50 - 100,senior,13500.0,19500.0,pln,52.265169,20.990446,b2b,2020-05-13 14:00:06.948000+00:00,False,itsg-senior-fullstack-php-developer,https://bucket.justjoin.it/offers/company_logos/thumb/7cb2e8b4de555bd7960ab8c291746e011b65b71e.jpg?1588945997,"[{'name': 'Vue.js', 'level': 2}, {'name': 'Yii/Laravel/Symphony', 'level': 4}, {'name': 'PHP', 'level': 5}]"
29,Front-end Developer,Piotrkowska 280A,Łódź,PL,"Piotrkowska 280A, Łódź",javascript,True,Optimo Development,https://optimodevelopment.com/,25-50,mid,6000.0,9000.0,pln,51.7458761,19.4617103,b2b,2020-05-13 14:00:06.948000+00:00,True,optimo-development-javascript-developer,https://bucket.justjoin.it/offers/company_logos/thumb/c54e6b25c11eafc4f4bd33b8b8b0211dcce321a4.png?1588078825,"[{'name': 'React Native', 'level': 4}, {'name': 'ReactJS', 'level': 4}, {'name': 'JavaScript', 'level': 4}]"
30,Front-End Developer (Angular JS),Aleja Zwycięstwa 96/98,Gdynia,PL,"Aleja Zwycięstwa 96/98, Gdynia",javascript,False,Jit Team,http://www.jit.team,300,mid,17500.0,22000.0,pln,54.494888,18.5381079,b2b,2020-05-13 14:00:06.948000+00:00,True,jit-team-front-end-developer-angular-js,https://bucket.justjoin.it/offers/company_logos/thumb/5dced4d643ed5fc88409260cf1f6c9ee4869a895.jpg?1587648304,"[{'name': 'TypeScript', 'level': 3}, {'name': 'Angular 2+', 'level': 3}, {'name': 'AngularJS', 'level': 3}]"
31,Front-end Developer React (MID),Wioślarska 8,Warszawa,PL,"Wioślarska 8, Warszawa",javascript,False,Cloud Best sp. z o.o.,https://www.minebest.com/,80,mid,12000.0,18000.0,pln,52.2334907,21.039439,b2b,2020-05-13 14:00:06.948000+00:00,False,cloud-best-sp-z-o-o-front-end-developer-react-mid,https://bucket.justjoin.it/offers/company_logos/thumb/b1ba7a995746a07e2cc290587e188482328e6e24.png?1580216771,"[{'name': 'React', 'level': 3}]"
32,Programista PHP,Trylińskiego 10,Olsztyn,PL,"Trylińskiego 10, Olsztyn",php,False,Artneo Sp. z o. o,http://www.artneo.pl,10-23,mid,5000.0,10000.0,pln,53.7645417,20.5198259,permanent,2020-05-13 14:00:06.948000+00:00,True,artneo-sp-z-o-o-programista-php,https://bucket.justjoin.it/offers/company_logos/thumb/65f5a553a6fac408c076e825a19ae87c1a11cad5.png?1585057687,"[{'name': 'MySQL', 'level': 4}, {'name': 'PHP 7', 'level': 4}, {'name': 'PHP 5', 'level': 4}]"
33,Remote Scala Engineer,Komandorska 6,Wrocław,PL,"Komandorska 6, Wrocław",scala,True,datarino.financial sp. z o.o.,http://datarino.financial/,1-10,mid,12000.0,19000.0,pln,51.1001928,17.0313051,b2b,2020-05-13 14:00:06.948000+00:00,True,datarino-financial-sp-z-o-o-remote-scala-engineer,https://bucket.justjoin.it/offers/company_logos/thumb/2ff50c2ae5fc5e013ced396813cd8e6b80d75530.JPG?1587646457,"[{'name': 'PostgreSQL', 'level': 3}, {'name': 'SQL', 'level': 4}, {'name': 'Scala', 'level': 4}]"
34,Senior Devops Engineer,Szczytnicka 11,Wrocław,PL,"Szczytnicka 11, Wrocław",devops,False,ITDS,http://www.itds.pl,200+,senior,16000.0,20000.0,pln,51.11328,17.0521069,b2b,2020-05-13 14:00:06.948000+00:00,False,itds-senior-devops-engineer,https://bucket.justjoin.it/offers/company_logos/thumb/0c3be51c802a631f351b6eab2e7398dc3edfbf7a.png?1583762992,"[{'name': 'Chef', 'level': 4}, {'name': 'Ruby', 'level': 5}, {'name': 'Python', 'level': 5}]"
35,Fullstack (Java + Angular) Developer,ul. Prosta 20,Warszawa,PL,"ul. Prosta 20, Warszawa",java,False,Margo,http://www.margo-group.com,300+,mid,16500.0,21500.0,pln,52.2324125,20.9928657,b2b,2020-05-13 14:00:06.948000+00:00,True,margo-fullstack-java-angular-developer,https://bucket.justjoin.it/offers/company_logos/thumb/a1e9eb06653c345cb6bb88c7d1a85e7c6963d8a9.png?1581948133,"[{'name': 'Spring', 'level': 3}, {'name': 'Angular', 'level': 3}, {'name': 'Java', 'level': 3}]"
36,Elixir Developer,Długa 72,Kraków,PL,"Długa 72, Kraków",other,False,Codibly,http://www.codibly.com,60-65,mid,9000.0,16000.0,pln,50.0719846,19.9357028,b2b,2020-05-13 14:00:06.948000+00:00,True,codibly-elixir-developer,https://bucket.justjoin.it/offers/company_logos/thumb/44fb063dfa3c3bd4cc60ad33f52b9f6f3b227459.png?1584367056,"[{'name': 'PostgreSQL', 'level': 3}, {'name': 'GraphQL', 'level': 3}, {'name': 'Elixir', 'level': 3}]"
37,Senior React Native Developer,Prosta 36,Wrocław,PL,"Prosta 36, Wrocław",javascript,False,Callstack,https://callstack.com/,25-35,senior,12000.0,20000.0,pln,51.103192,17.0208402,b2b,2020-05-13 14:00:06.948000+00:00,True,callstack-react-native-developer,https://bucket.justjoin.it/offers/company_logos/thumb/222cd123f605c4b490fc563c9a918c38bada44f0.png?1562755238,"[{'name': 'English', 'level': 4}, {'name': 'ReactJS', 'level': 4}, {'name': 'JavaScript', 'level': 4}]"
38,Java Developer (Fintech),Kościuszki 82,Wrocław,PL,"Kościuszki 82, Wrocław",java,True,VM.PL Software House,https://careers.vm.pl,50+,mid,14000.0,20000.0,pln,51.1011989,17.0410141,b2b,2020-05-13 14:00:06.948000+00:00,True,vm-pl-fintech-jee-developer-with-german,https://bucket.justjoin.it/offers/company_logos/thumb/c7cfd213da57713562200055fb70b85ebcaeeef4.png?1560174368,"[{'name': 'Maven', 'level': 4}, {'name': 'JPA / Hibernate', 'level': 4}, {'name': 'Java EE', 'level': 5}]"
39,Full-Stack .NET Developer,Krupnicza 3,Kraków,PL,"Krupnicza 3, Kraków",net,False,Forte_ Digital,https://fortedigital.no,40,mid,12000.0,16000.0,pln,50.063617,19.931784,permanent,2020-05-13 14:00:06.948000+00:00,False,forte_-digital-full-stack-net-developer,https://bucket.justjoin.it/offers/company_logos/thumb/2b875e5473234ad8db3b067b844745b58ca8ddfe.png?1549869262,"[{'name': 'ASP.NET MVC', 'level': 3}, {'name': 'C#', 'level': 3}, {'name': '.Net', 'level': 3}]"
40,Front-End Developer,Trylińskiego 10,Olsztyn,PL,"Trylińskiego 10, Olsztyn",javascript,False,Artneo Sp. z o. o,http://www.artneo.pl,10-23,mid,4000.0,8000.0,pln,53.7645417,20.5198259,permanent,2020-05-13 14:00:06.948000+00:00,True,artneo-sp-z-o-o-front-end-developer,https://bucket.justjoin.it/offers/company_logos/thumb/63bb1dbb1bf3bffdcc8b902e4edb61b2adfc347d.png?1585055982,"[{'name': 'JavaScript', 'level': 4}, {'name': 'CSS3', 'level': 5}, {'name': 'HTML5', 'level': 5}]"
41,Full Stack .Net Developer,Kilińskiego Jana,Łódź,PL,"Kilińskiego Jana, Łódź",net,False,7N,https://www.7n.com,700+,senior,16000.0,19200.0,pln,51.749871,19.4739014,b2b,2020-05-13 14:00:06.948000+00:00,True,7n-full-stack-net-developer-lodz,https://bucket.justjoin.it/offers/company_logos/thumb/c4bf2c9789ae85ee5b2c6f7fa9a2004149fe4ee1.png?1585921249,"[{'name': 'JavaScript', 'level': 3}, {'name': 'ASP.NET MVC', 'level': 4}, {'name': '.NET Core', 'level': 4}]"
42,Młodszy Tester ERP,"ul. Legnicka, 51-53",Wrocław,PL,"ul. Legnicka, 51-53, Wrocław",testing,False,Sente,https://praca.sente.pl/,150+,junior,4000.0,4500.0,pln,51.1229862,16.9908802,permanent,2020-05-13 13:56:00+00:00,True,sente-mlodszy-tester-erp,https://bucket.justjoin.it/offers/company_logos/thumb/2d3e67cb5cb4e26ca2506e01190cbd99002155bd.jpg?1582207768,"[{'name': 'C++', 'level': 1}, {'name': 'C#', 'level': 1}, {'name': 'SQL', 'level': 3}]"
43,Principal Engineer,Centrum,Kraków,PL,"Centrum, Kraków",java,False,Vertex Solutions,https://www.vertex-solutions.co.uk/,10-50,senior,23000.0,28000.0,pln,50.0549033,19.92618,b2b,2020-05-13 13:40:00+00:00,True,vertex-solutions-principal-engineer,https://bucket.justjoin.it/offers/company_logos/thumb/24a5104bf4eed2b64352d7c65365c8f0b203a76d.jpg?1589377172,"[{'name': 'Amazon AWS', 'level': 4}, {'name': 'Python', 'level': 5}, {'name': 'Java', 'level': 5}]"
44,Senior Software Engineer,Złota 59,Warszawa,PL,"Złota 59, Warszawa",python,False,Sauce Labs INC.,https://saucelabs.com,250-300,senior,5000.0,6000.0,usd,52.2302995,21.0014321,b2b,2020-05-13 13:25:00+00:00,True,sauce-labs-inc-senior-software-engineer,https://bucket.justjoin.it/offers/company_logos/thumb/cfeb44a69c3bccfd7782404053c27120aca85eeb.png?1589376220,"[{'name': 'Python', 'level': 4}, {'name': 'Go', 'level': 4}]"
45,Senior .Net Engineer,Pokorna 2/947,Warszawa,PL,"Pokorna 2/947, Warszawa",net,True,Sunscrapers Sp. z o. o.,https://sunscrapers.com/,30+,senior,14000.0,18000.0,pln,52.2547031,20.995033,b2b,2020-05-13 13:24:00+00:00,True,sunscrapers-sp-z-o-o-senior-net-engineer,https://bucket.justjoin.it/offers/company_logos/thumb/85eb3dcaf5520fa01debadbe896437d3f7f1808e.png?1589376225,"[{'name': 'SQL', 'level': 5}, {'name': 'C#', 'level': 5}, {'name': '.Net', 'level': 5}]"
46,Analityk biznesowo systemowy,Grunwaldzka,Poznań,PL,"Grunwaldzka, Poznań",other,False,Devire,http://devire.pl,<200,mid,10000.0,15000.0,pln,52.3844397,16.83807,b2b,2020-05-13 13:23:00+00:00,True,devire-analityk-biznesowo-systemowy-poznan,https://bucket.justjoin.it/offers/company_logos/thumb/97fed71c3e4b015b2e91090b9177e924fff3291f.png?1589376147,"[{'name': 'Analiza Biznesowa', 'level': 3}, {'name': 'Chatboty', 'level': 3}, {'name': 'Machine Learning', 'level': 3}]"
47,Analityk biznesowo systemowy,Grunwaldzka,Poznań,PL,"Grunwaldzka, Poznań",other,False,Devire,http://devire.pl,<200,mid,10000.0,15000.0,pln,52.3844397,16.83807,b2b,2020-05-13 13:17:00+00:00,False,devire-analityk-biznesowo-systemowy,https://bucket.justjoin.it/offers/company_logos/thumb/69a6a0bfc57f1fb421e4b03401af7e674a2fe481.png?1589375763,"[{'name': 'Automatyzacja', 'level': 3}, {'name': 'Machine Learning', 'level': 3}, {'name': 'Analiza Biznesowa', 'level': 3}]"
48,Java Developer,Kraków,Kraków,PL,"Kraków, Kraków",java,False,dotLinkers,http://dotlinkers.pl/,17,mid,13000.0,17000.0,pln,50.0646501,19.9449799,permanent,2020-05-13 13:00:06.950000+00:00,True,dotlinkers-java-developer-7ac6d354-e24c-4361-a4fe-b02dd4c0c52f,https://bucket.justjoin.it/offers/company_logos/thumb/c672bcc247139e99cf32c5955337a4191607c59e.jpg?1584620991,"[{'name': 'Spring Boot', 'level': 4}, {'name': 'CI/CD', 'level': 4}, {'name': 'Java', 'level': 4}]"
49,Ruby Developer (Remote),"Targowa, 35",Łódź,PL,"Targowa, 35, Łódź",ruby,True,Ragnarson sp. z o.o.,https://ragnarson.com/,25+,mid,8000.0,13000.0,pln,51.76157,19.472185,b2b,2020-05-13 13:00:06.950000+00:00,True,ragnarson-sp-z-o-o-ruby-developer-remote,https://bucket.justjoin.it/offers/company_logos/thumb/e68a550976bd1a9079e1ed6b291fd427322e84c2.png?1585730251,"[{'name': 'Git', 'level': 4}, {'name': 'Rails', 'level': 4}, {'name': 'Ruby', 'level': 4}]"
50,iOS Developer,Piatkowska 122,Poznań,PL,"Piatkowska 122, Poznań",mobile,False,MileStone,http://wayms.com,20,mid,6000.0,10000.0,pln,52.4326747,16.9143216,b2b,2020-05-13 13:00:06.950000+00:00,True,milestone-ios-developer,https://bucket.justjoin.it/offers/company_logos/thumb/4ddc74dafa028cde0f85d016754381b90acee779.png?1585052388,"[{'name': 'Git', 'level': 4}, {'name': 'Swift', 'level': 4}, {'name': 'iOS SDK', 'level': 4}]"
51,Training & Knowledge Manager,Postępu,Warszawa,PL,"Postępu, Warszawa",pm,False,Securitas,https://securitas.teamtailor.com/pages/gdc-warsaw,300+,senior,16000.0,21000.0,pln,52.1779945,20.9963454,permanent,2020-05-13 13:00:06.950000+00:00,True,securitas-training-knowledge-manager,https://bucket.justjoin.it/offers/company_logos/thumb/bd4cb5f0f5e3fdcc58840f6ab7f5fc686281da2e.png?1587645216,"[{'name': 'ITSM', 'level': 4}]"
52,Senior Android Developer,Piłsudskiego 69,Wrocław,PL,"Piłsudskiego 69, Wrocław",mobile,False,intive,https://www.intive.com/en,1600,senior,12000.0,19000.0,pln,51.1007739,17.0311093,b2b,2020-05-13 13:00:06.950000+00:00,False,intive-senior-android-developer-25be0f3f-a798-4ece-98bf-50a8d598ac13,https://bucket.justjoin.it/offers/company_logos/thumb/f96967ebf54152c33aa3ad7b0020c01c4e698137.png?1582711616,"[{'name': 'Kotlin', 'level': 4}, {'name': 'Java', 'level': 4}, {'name': 'Android', 'level': 4}]"
53,Programista C#,"Suchy Las, Diamentowa 9 ",Poznań,PL,"Suchy Las, Diamentowa 9 , Poznań",c,False,Gomez,http://www.gomez.pl,300-350,mid,6500.0,12500.0,pln,52.4665038,16.8766706,b2b,2020-05-13 12:48:00+00:00,True,gomez-programista-c,https://bucket.justjoin.it/offers/company_logos/thumb/5bb76326d45b99d3bb637e2b2abaacac4127934b.png?1589374067,"[{'name': 'React', 'level': 2}, {'name': 'MySQL', 'level': 3}, {'name': 'C#', 'level': 4}]"
54,QA Engineer,Al. Jerozolimskie 123A,Warszawa,PL,"Al. Jerozolimskie 123A, Warszawa",testing,False,DevSkiller,https://devskiller.com,25,senior,10000.0,14000.0,pln,52.2248373,20.9912719,b2b,2020-05-13 12:19:00+00:00,True,devskiller-qa-engineer,https://bucket.justjoin.it/offers/company_logos/thumb/4331c13f21f4fc68693a3e2e67a9a652f065bf3f.png?1589372322,"[{'name': 'Java', 'level': 2}, {'name': 'Spock', 'level': 3}, {'name': 'Web Applications', 'level': 3}]"
55,UX/UI Designer,ul. al. Grunwaldzka 472B,Gdańsk,PL,"ul. al. Grunwaldzka 472B, Gdańsk",ux,False,Develocraft ,https://develocraft.com/,60+,senior,7000.0,8000.0,pln,54.4032066,18.5698816,b2b,2020-05-13 12:19:00+00:00,True,develocraft-ux-ui-designer,https://bucket.justjoin.it/offers/company_logos/thumb/0fe4c6e1e4fb2673a05dfa51ce6362aa091e612b.jpg?1589372347,"[{'name': 'Sketch', 'level': 4}, {'name': 'English', 'level': 4}, {'name': 'UX', 'level': 4}]"
56,Tech Team Lead,chorzowska,Gliwice,PL,"chorzowska, Gliwice",net,True,ASTEK Polska,http://astek.pl/,800,mid,15750.0,15750.0,pln,50.3010943,18.7123063,b2b,2020-05-13 12:14:00+00:00,True,astek-polska-tech-team-lead,https://bucket.justjoin.it/offers/company_logos/thumb/1dce819a5bcaee0e52cb132e0e529aed741ca3f6.png?1589372029,"[{'name': 'GitHub', 'level': 4}, {'name': 'WinForms', 'level': 4}, {'name': '.Net', 'level': 4}]"
57,Full Stack Developer,Al. Jerozolimskie 123A,Warszawa,PL,"Al. Jerozolimskie 123A, Warszawa",java,False,DevSkiller,https://devskiller.com,25,senior,15000.0,20000.0,pln,52.2248373,20.9912719,b2b,2020-05-13 12:14:00+00:00,True,devskiller-full-stack-developer-warszawa,https://bucket.justjoin.it/offers/company_logos/thumb/98f2ce4112c8a092338cfbe38a65a77eb9ee2a95.png?1589371965,"[{'name': 'MySQL', 'level': 4}, {'name': 'Spring Boot', 'level': 4}, {'name': 'Java', 'level': 5}]"
58,Mid Python Developer (+Scraping),Emilii Plater,Warszawa,PL,"Emilii Plater, Warszawa",python,False,ITFS,https://www.itfs.pl,100+,mid,14500.0,17900.0,pln,52.2288374,21.0051571,b2b,2020-05-13 12:06:00+00:00,True,itfs-mid-python-developer-scraping-warszawa,https://bucket.justjoin.it/offers/company_logos/thumb/95130abbc8810c1e0004725b45a20a769c1c7031.jpg?1589371551,"[{'name': 'XML', 'level': 3}, {'name': 'HTML', 'level': 3}, {'name': 'Python', 'level': 3}]"
59,Node.JS/React.JS Software Developer,"Zabierzów, Krakowska 368",Kraków,PL,"Zabierzów, Krakowska 368, Kraków",javascript,False,Novomatic Technologies Poland,http://Novomatic Technologies Poland,300+,mid,8000.0,15000.0,pln,50.1080455,19.829973,permanent,2020-05-13 12:00:07.480000+00:00,True,novomatic-technologies-poland-node-js-react-js-software-developer,https://bucket.justjoin.it/offers/company_logos/thumb/d7143dd98f900dd4baed864a05e9810e61fc9414.png?1582719956,"[{'name': 'ReactJS', 'level': 3}, {'name': 'Node.js', 'level': 3}, {'name': 'JavaScript', 'level': 3}]"
60,Software Engineer (Java),Śródmieście,Gdynia,PL,"Śródmieście, Gdynia",java,False,Plenti,http://www.plenti.pl,100+,senior,14000.0,17000.0,pln,54.5213882,18.5393982,permanent,2020-05-13 12:00:07.480000+00:00,True,plenti-software-engineer,https://bucket.justjoin.it/offers/company_logos/thumb/67f9f4e2ee166de50726b167f70656fac4704954.jpg?1583226133,"[{'name': 'C++', 'level': 1}, {'name': 'Relacyjne Bazy Danych', 'level': 3}, {'name': 'Java', 'level': 3}]"
61,Senior React Full Stack Developer,"Piekary 5,",Poznań,PL,"Piekary 5,, Poznań",javascript,True,LocalBini,http://localbini.com,11,senior,16000.0,25000.0,pln,52.405305,16.927972,b2b,2020-05-13 12:00:07.480000+00:00,True,localbini-senior-react-full-stack-developer,https://bucket.justjoin.it/offers/company_logos/thumb/52bdb904f51da44341517f0c84a18ae59f08391d.png?1587640802,"[{'name': 'Redux', 'level': 5}, {'name': 'TypeScript', 'level': 5}, {'name': 'React', 'level': 5}]"
62,Project Manager,Wilcza 46,Warszawa,PL,"Wilcza 46, Warszawa",pm,False,inFullMobile,https://infullmobile.com/,50+,mid,10000.0,15000.0,pln,52.2244084,21.0125712,b2b,2020-05-13 11:37:00+00:00,True,infullmobile-project-manager,https://bucket.justjoin.it/offers/company_logos/thumb/6b5d6b41af660cbdbe62a9c19d334a7ff957c603.png?1516143347,"[{'name': 'JIRA', 'level': 3}, {'name': 'Communication', 'level': 4}, {'name': 'English', 'level': 5}]"
63,Senior BI Engineer,Powiśle,Warszawa,PL,"Powiśle, Warszawa",data,False,IT Kontrakt powered by Avenga,http://www.itkontrakt.pl,2500+,senior,20000.0,25000.0,pln,52.2407178,21.0258297,b2b,2020-05-13 11:32:11.667000+00:00,True,it-kontrakt-powered-by-avenga-senior-bi-engineer,https://bucket.justjoin.it/offers/company_logos/thumb/f23f549048fcd4a7d8a124eced0410881ff85f56.jpg?1585738119,"[{'name': 'Power BI', 'level': 4}, {'name': 'Business Intelligence', 'level': 4}, {'name': 'MS Azure', 'level': 4}]"
64,C++ Developer,plac Strzelecki 25,Wrocław,PL,"plac Strzelecki 25, Wrocław",c,False,Canon Ophthalmic Technologies Sp. z o.o.,https://www.canon-ot.com.pl/,50,mid,,,,51.1227061,17.026766,permanent,2020-05-13 11:29:00+00:00,True,canon-ophthalmic-technologies-sp-z-o-o-c-developer,https://bucket.justjoin.it/offers/company_logos/thumb/e19d36dc0a2aaf63871fa432b72cd9b5ab567683.png?1589369313,"[{'name': 'C++11', 'level': 3}, {'name': 'Image Processing', 'level': 3}, {'name': 'C++', 'level': 3}]"
65,Senior Software Engineer Go/C++,Rynek 1,Wrocław,PL,"Rynek 1, Wrocław",go,True,Varwise,https://varwise.com/,10,senior,22000.0,28000.0,pln,51.1109098,17.030576,b2b,2020-05-13 11:27:00+00:00,True,varwise-senior-software-engineer-go-c,https://bucket.justjoin.it/offers/company_logos/thumb/5bbb8aa6f01d2d58301b7cd3c444ef23d175b348.png?1589369232,"[{'name': 'PostgreSQL', 'level': 3}, {'name': 'C++', 'level': 4}, {'name': 'Golang', 'level': 4}]"
66,Developer PHP (Magento),"Magazynowa, Kowale",Gdańsk,PL,"Magazynowa, Kowale, Gdańsk",php,False,Jobhouse,http://www.jobhouse.pl,10-20,mid,4000.0,8000.0,pln,54.302693,18.5586163,b2b,2020-05-13 11:26:00+00:00,True,jobhouse-developer-php-magento,https://bucket.justjoin.it/offers/company_logos/thumb/957ec523740aeace8fffefde739ee8d89e5eac23.png?1589369022,"[{'name': 'SQL', 'level': 5}, {'name': 'MySQL', 'level': 5}, {'name': 'PHP', 'level': 5}]"
67,.NET Developer,plac Strzelecki 25,Wrocław,PL,"plac Strzelecki 25, Wrocław",net,False,Canon Ophthalmic Technologies Sp. z o.o.,https://www.canon-ot.com.pl/,50,mid,,,,51.1227061,17.026766,permanent,2020-05-13 11:17:00+00:00,True,canon-ophthalmic-technologies-sp-z-o-o-net-developer,https://bucket.justjoin.it/offers/company_logos/thumb/59e8210c2fc3f26d440acb0d752b7e50e1b164f1.png?1589368534,"[{'name': 'SQL', 'level': 4}, {'name': 'C#', 'level': 4}, {'name': '.Net', 'level': 4}]"
68,Software Developer (Scala),Nowogrodzka 21,Warszawa,PL,"Nowogrodzka 21, Warszawa",scala,False,Diverse Consulting Group,https://diversecg.pl/,200+,senior,20160.0,21000.0,pln,52.229264,21.0153735,b2b,2020-05-13 11:00:07.145000+00:00,True,diverse-consulting-group-software-developer,https://bucket.justjoin.it/offers/company_logos/thumb/7ac9d0ac1118c3be594d38a59f7654695bee329f.png?1585910560,"[{'name': 'Spark', 'level': 5}, {'name': 'Hadoop', 'level': 5}, {'name': 'Scala', 'level': 5}]"
69,Junior Frontend Developer,Traugutta,Wrocław,PL,"Traugutta, Wrocław",javascript,False,B3 Consulting Poland,https://b3.se/pl,500+,junior,7500.0,8500.0,pln,51.1030078,17.0505486,b2b,2020-05-13 11:00:07.145000+00:00,True,b3-consulting-poland-junior-frontend-developer-wroclaw,https://bucket.justjoin.it/offers/company_logos/thumb/3cba1e8cace68357621529718eaf72c5b9006443.jpg?1585048267,"[{'name': 'Angular 2+', 'level': 2}, {'name': 'TypeScript', 'level': 2}, {'name': 'JavaScript', 'level': 2}]"
70,Analityk systemów IT,Fabryczna 1a,Bydgoszcz,PL,"Fabryczna 1a, Bydgoszcz",data,False,POSTDATA S.A.,http://www.postdata.pl,100+,mid,,,,53.1236122,18.0640991,permanent,2020-05-13 11:00:07.145000+00:00,True,postdata-s-a-analityk-systemow-it-bydgoszcz,https://bucket.justjoin.it/offers/company_logos/thumb/65092af001272d5ce4a43e9e307f669754380669.png?1587638674,"[{'name': 'BPMN', 'level': 4}, {'name': 'MS SQL', 'level': 4}, {'name': 'UML', 'level': 4}]"
71,Software Architect,Życzkowskiego,Kraków,PL,"Życzkowskiego, Kraków",java,False,Prisjakt Poland,http://www.prisjakt.nu,100,senior,,,,50.0777817,19.9946611,permanent,2020-05-13 11:00:07.145000+00:00,True,prisjakt-poland-software-architect,https://bucket.justjoin.it/offers/company_logos/thumb/7fcd098bd35e3f24d653cc94386ff6992a222e00.png?1582880956,"[{'name': 'Kafka', 'level': 4}, {'name': 'GCP', 'level': 4}, {'name': 'Git', 'level': 4}]"
72,Developer .NET,Fabryczna 1a,Bydgoszcz,PL,"Fabryczna 1a, Bydgoszcz",net,False,POSTDATA S.A.,http://www.postdata.pl,100+,mid,,,,53.1236122,18.0640991,permanent,2020-05-13 11:00:07.145000+00:00,True,postdata-s-a-developer-net-bydgoszcz,https://bucket.justjoin.it/offers/company_logos/thumb/dc636586a74422f355d603c18ef4fbeb9c975b48.png?1587638100,"[{'name': 'Angular', 'level': 4}, {'name': 'MS SQL', 'level': 4}, {'name': '.Net', 'level': 4}]"
73,Fullstack Developer/Devops Engineer,Bracka 25,Warszawa,PL,"Bracka 25, Warszawa",net,True,FOSS Polska,https://www.fossanalytics.com/pl-pl#,70-80,mid,14000.0,16000.0,pln,52.2321279,21.015266,b2b,2020-05-13 11:00:07.145000+00:00,True,foss-polska-fullstack-developer-devops-engineer,https://bucket.justjoin.it/offers/company_logos/thumb/a3518a9fe4b7368af19fa15ea0fcbccf02b84849.jpg?1587638259,"[{'name': 'C#', 'level': 1}, {'name': 'Sitecore', 'level': 1}, {'name': '.Net', 'level': 3}]"
74,"Backend Developer (Rust, Java, C)",Wróbla 33,Warszawa,PL,"Wróbla 33, Warszawa",java,False,GENESISMOBO,https://genesismobo.com/,30+,mid,10000.0,15000.0,pln,52.176355,21.032055,b2b,2020-05-13 11:00:07.145000+00:00,True,genesismobo-backend-developer-rust-kotlin,https://bucket.justjoin.it/offers/company_logos/thumb/fbc82f38b42e1a07f145960280f5e399cf3f57a6.png?1571920177,"[{'name': 'Rust', 'level': 3}, {'name': 'Java', 'level': 3}, {'name': 'Linux', 'level': 3}]"
75,DevOps Engineer,Wróbla 33,Warszawa,PL,"Wróbla 33, Warszawa",devops,False,GENESISMOBO,https://genesismobo.com/,30+,mid,9000.0,13000.0,pln,52.176355,21.032055,b2b,2020-05-13 11:00:07.145000+00:00,True,genesismobo-rust-backend-developer,https://bucket.justjoin.it/offers/company_logos/thumb/42670c53cd04d6668d9086b9cc61bd45258490b9.png?1568202587,"[{'name': 'Docker', 'level': 3}, {'name': 'Bash/Shell', 'level': 4}, {'name': 'Linux', 'level': 5}]"
76,Specjalista Cisco,Al. Jana Pawła II 11,Warszawa,PL,"Al. Jana Pawła II 11, Warszawa",other,False,INTITEK Polska,http://www.intitek.fr/en/,100 - 200,mid,17000.0,21000.0,pln,52.231567,20.998704,b2b,2020-05-13 11:00:07.145000+00:00,True,intitek-polska-specjalista-cisco,https://bucket.justjoin.it/offers/company_logos/thumb/aa8c427114aca044fad05881f9aa6f234af9fb00.png?1588675990,"[{'name': 'Telco', 'level': 3}, {'name': 'Cisco', 'level': 4}]"
77,Full Stack Developer,Życzkowskiego,Kraków,PL,"Życzkowskiego, Kraków",javascript,False,Prisjakt Poland,http://www.prisjakt.nu,100,senior,,,,50.0777817,19.9946611,permanent,2020-05-13 11:00:07.145000+00:00,True,prisjakt-poland-backend-developer,https://bucket.justjoin.it/offers/company_logos/thumb/89a20de3d2d87666c4dd0225b2b49de7dccc0781.png?1582881520,"[{'name': 'Python', 'level': 3}, {'name': 'React', 'level': 4}, {'name': 'JavaScript', 'level': 4}]"
78,Senior Python Full-Stack Developer,Piekary 5,Poznań,PL,"Piekary 5, Poznań",python,True,LocalBini,http://www.localbini.com,11,senior,16000.0,25000.0,pln,52.405305,16.927972,b2b,2020-05-13 11:00:07.145000+00:00,True,localbini-senior-python-full-stack-developer,https://bucket.justjoin.it/offers/company_logos/thumb/a2c9c3750014399e76a54612d678cb832476ea5b.png?1587640401,"[{'name': 'Continuous Integration', 'level': 5}, {'name': 'Amazon AWS', 'level': 5}, {'name': 'Python', 'level': 5}]"
79,Administrator sieci i systemów IT,Czyżyny,Kraków,PL,"Czyżyny, Kraków",security,False,Klient TalentHouse HR Advisory,http://talenthouse.pl/#/offers,50-100,mid,5500.0,7500.0,pln,50.0634194,20.0146814,permanent,2020-05-13 10:34:00+00:00,True,klient-talenthouse-hr-advisory-administrator-sieci-i-systemow-it,https://bucket.justjoin.it/offers/company_logos/thumb/f5c688050f841348f3269e577e2f73c9e36da3f8.png?1585038795,"[{'name': 'Azure', 'level': 4}, {'name': 'Active Directory', 'level': 4}, {'name': 'Microsoft Windows Server', 'level': 4}]"
80,Full-stack Web Developer,Czysta 10,Kraków,PL,"Czysta 10, Kraków",javascript,True,Premotec Poland,http://www.premotec.ch,14,mid,11000.0,14000.0,pln,50.063715,19.9258075,b2b,2020-05-13 10:27:02.326000+00:00,True,premotec-poland-full-stack-web-developer,https://bucket.justjoin.it/offers/company_logos/thumb/456fde2855bdb0e264b1b6cc4a473fa57ae7cd22.jpg?1589365216,"[{'name': 'WordPress', 'level': 3}, {'name': 'Node.js', 'level': 3}, {'name': 'Angular', 'level': 3}]"
81,R&D Manager,Sobieskiego,Toruń,PL,"Sobieskiego, Toruń",javascript,False,Sowelo Consulting,http://www.sowelo.eu,200,senior,,,pln,53.020322,18.6253741,permanent,2020-05-13 10:02:00+00:00,False,sowelo-consulting-r-d-manager,https://bucket.justjoin.it/offers/company_logos/thumb/85ee0f412ac92dc3203e6493a33e1a6e07f785cb.png?1589364104,"[{'name': 'JavaScript', 'level': 3}, {'name': 'Azure', 'level': 3}, {'name': 'People Management', 'level': 4}]"
82,AngularJS Developer,Tęczowa 11,Wrocław,PL,"Tęczowa 11, Wrocław",javascript,False,Zaven,https://zaven.co,30,junior,,,pln,51.1064696,17.0173343,b2b,2020-05-13 10:00:06.921000+00:00,True,zaven-angularjs-developer,https://bucket.justjoin.it/offers/company_logos/thumb/0bc2f8ad72f95433f155f6cd0585294bfd431d67.jpg?1588065276,"[{'name': 'HTML5', 'level': 3}, {'name': 'CSS3', 'level': 3}, {'name': 'AngularJS', 'level': 3}]"
83,Java Software Engineer,Centrum ,Kraków,PL,"Centrum , Kraków",java,False,Vertex Solutions,https://www.vertex-solutions.co.uk/,10-50,senior,21000.0,25000.0,pln,50.0549033,19.92618,b2b,2020-05-13 10:00:06.921000+00:00,True,vertex-solutions-java-software-engineer,https://bucket.justjoin.it/offers/company_logos/thumb/56cd51f08871d6b7e22de01454bf5ea70cea0636.jpg?1585044432,"[{'name': 'CI/CD', 'level': 5}, {'name': 'Java', 'level': 5}, {'name': 'Amazon AWS', 'level': 5}]"
84,Trener (prowadzenie szkoleń),al. Grunwaldzka 472b,Gdańsk,PL,"al. Grunwaldzka 472b, Gdańsk",java,False,infoShare Academy,https://infoshareacademy.com/,10-23,mid,,,,54.4032066,18.5698816,b2b,2020-05-13 10:00:06.921000+00:00,True,infoshare-academy-trener-prowadzenie-szkolen,https://bucket.justjoin.it/offers/company_logos/thumb/5a7230628773e551e90d62181b0645c6904ad96b.png?1585043546,"[{'name': 'JavaScript', 'level': 4}, {'name': 'JEE', 'level': 4}, {'name': 'Java SE', 'level': 4}]"
85,DevOps Engineer,Al. Grunwaldzka 163,Gdańsk,PL,"Al. Grunwaldzka 163, Gdańsk",devops,False,INTITEK Polska,http://www.intitek.fr/en/,100 - 200,mid,12000.0,18000.0,pln,54.3847329,18.5966741,b2b,2020-05-13 10:00:06.921000+00:00,True,intitek-polska-devops-engineer-gdansk,https://bucket.justjoin.it/offers/company_logos/thumb/57f7fda60c02689e9cfb04de424474265eca9efc.png?1588670320,"[{'name': 'Amazon Web Services', 'level': 4}, {'name': 'CI/CD', 'level': 4}, {'name': 'Linux', 'level': 4}]"
86,Scrum Master,Śródmieście,Warszawa,PL,"Śródmieście, Warszawa",pm,False,7N,https://www.7n.com,700+,mid,15120.0,18480.0,pln,52.2296756,21.0122287,b2b,2020-05-13 10:00:06.921000+00:00,True,7n-scrum-master-warsaw,https://bucket.justjoin.it/offers/company_logos/thumb/1a303d840c5a0a883402f65a69e016ef10ab79a1.png?1586288687,"[{'name': 'Scrum Master', 'level': 3}, {'name': 'Scrum', 'level': 3}, {'name': 'Agile', 'level': 3}]"
87,C#/ .NET Developer,Opolska 114,Kraków,PL,"Opolska 114, Kraków",net,False,KPMG,http://www.kpmg.pl,2000,mid,8000.0,12000.0,pln,50.0872791,19.9544973,permanent,2020-05-13 10:00:06.921000+00:00,True,kpmg-c-net-developer,https://bucket.justjoin.it/offers/company_logos/thumb/ef8eec4dfe4903833ec5f78b1a04d706799a6db6.jpg?1586239861,"[{'name': 'JavaScript', 'level': 3}, {'name': 'SQL Server', 'level': 4}, {'name': '.Net', 'level': 4}]"
88,Oracle Developer,00-805,Warszawa ,PL,"00-805, Warszawa ",data,False,ManpowerGroup,http://www.experis.pl,4000,mid,18000.0,20000.0,pln,52.2276009,20.9929851,b2b,2020-05-13 10:00:06.921000+00:00,True,manpowergroup-oracle-developer,https://bucket.justjoin.it/offers/company_logos/thumb/dbc6785cb71a7dfb986c59625dca46b06cb972c2.png?1588068752,"[{'name': 'Oracle Forms', 'level': 4}, {'name': 'SQL', 'level': 4}, {'name': 'Oracle DB', 'level': 4}]"
89,Build Programmer in DevOps Team (C++),ul. Jagiellońska 74,Warszawa,PL,"ul. Jagiellońska 74, Warszawa",c,False,CD PROJEKT RED,https://en.cdprojektred.com/,800,mid,,,,52.2672444,21.0209938,permanent,2020-05-13 10:00:06.921000+00:00,True,cd-projekt-red-build-programmer-in-devops-team-c,https://bucket.justjoin.it/offers/company_logos/thumb/c1184fdef5b5c0828463f04403632ea52b487df9.jpg?1587634947,"[{'name': 'C++', 'level': 3}]"
90,DevOps Engineer,Bukowińska 22B,Warszawa,PL,"Bukowińska 22B, Warszawa",devops,False,Primaris,https://primaris.eu/,130+,senior,,,pln,52.1823233,21.0253869,b2b,2020-05-13 10:00:06.921000+00:00,True,primaris-devops-engineer,https://bucket.justjoin.it/offers/company_logos/thumb/73ab81a5c3d4b6debf83369c64549efbc5957241.png?1588931099,"[{'name': 'Jenkins', 'level': 4}, {'name': 'Docker', 'level': 4}, {'name': 'Linux', 'level': 4}]"
91,Full Stack Engineer Java/JavaScript,Centrum,Kraków,PL,"Centrum, Kraków",java,False,Vertex Solutions,https://www.vertex-solutions.co.uk/,10-50,senior,20000.0,25000.0,pln,50.0549033,19.92618,b2b,2020-05-13 09:53:00+00:00,True,vertex-solutions-full-stack-engineer,https://bucket.justjoin.it/offers/company_logos/thumb/6ff9b4f5a572d48e1f995794aad3c7b6d8bbaa77.jpg?1589363575,"[{'name': 'ReactJS', 'level': 4}, {'name': 'JavaScript', 'level': 4}, {'name': 'Java', 'level': 5}]"
92,Mid/Senior Android Developer,Domaniewska 50,Warszawa,PL,"Domaniewska 50, Warszawa",mobile,False,Stepstone Services,https://www.stepstoneservices.pl/,280+,mid,11000.0,17000.0,pln,52.1836762,20.9953747,permanent,2020-05-13 09:49:00+00:00,True,stepstone-services-mid-senior-android-developer-warszawa,https://bucket.justjoin.it/offers/company_logos/thumb/6ff76265ce39c0b00e4e4c9fae4420ac16ac2301.png?1589291353,"[{'name': 'Android SDK', 'level': 4}, {'name': 'Kotlin', 'level': 4}, {'name': 'Java', 'level': 4}]"
93,Senior Java Developer (Big Data),Domaniewska 50,Warszawa,PL,"Domaniewska 50, Warszawa",java,False,Stepstone Services,http://www.stepstoneservices.pl,280+,senior,13000.0,17000.0,pln,52.1836762,20.9953747,b2b,2020-05-13 09:49:00+00:00,True,stepstone-services-senior-java-developer-big-data-warszawa,https://bucket.justjoin.it/offers/company_logos/thumb/6bd05ce11478b313c04054f508514e9f0f28e8cc.png?1589291712,"[{'name': 'Git', 'level': 4}, {'name': 'Big Data', 'level': 5}, {'name': 'Java', 'level': 5}]"
94,Front-End Developer,Komisji Edukacji Narodowej 95,Warszawa,PL,"Komisji Edukacji Narodowej 95, Warszawa",javascript,False,VideoMill Sp. z o.o.,http://videomill.pl,12,mid,6000.0,12000.0,pln,52.156622,21.0327069,permanent,2020-05-13 09:31:00+00:00,False,videomill-sp-z-o-o-front-end-developer-874b05fb-2ba4-47ae-8016-dd6558594710,https://bucket.justjoin.it/offers/company_logos/thumb/4d9a7c08ab87f604afd3ebf0ff580a28cf4b7a4f.png?1584365437,"[{'name': 'Node.js', 'level': 2}, {'name': 'HTML5', 'level': 3}, {'name': 'JavaScript', 'level': 4}]"
95,Sr Software Development Engineer in Test,Opolska 100,Kraków,PL,"Opolska 100, Kraków",java,False,Akamai,http://www.akamai.com,8000,senior,13000.0,16000.0,pln,50.0891857,19.9464743,permanent,2020-05-13 09:14:00+00:00,True,akamai-sr-software-development-engineer-in-test,https://bucket.justjoin.it/offers/company_logos/thumb/dfcc1e338c495e0f6fe301851190d2088725963f.png?1585227550,"[{'name': 'Hadoop', 'level': 2}, {'name': 'Linux', 'level': 3}, {'name': 'Java', 'level': 4}]"
96,(Senior) Fullstack Engineer with Java,Opolska 100,Kraków,PL,"Opolska 100, Kraków",java,False,Akamai,http://www.akamai.com,8000,senior,12000.0,18000.0,pln,50.0891857,19.9464743,permanent,2020-05-13 09:14:00+00:00,True,akamai-senior-fullstack-engineer-with-java,https://bucket.justjoin.it/offers/company_logos/thumb/e4b255026517ce35f9eaabe7c53b4b64499364ae.png?1585566367,"[{'name': 'JavaScript', 'level': 2}, {'name': 'Linux', 'level': 4}, {'name': 'Java', 'level': 4}]"
97,DevOps Engineer II,ul. Opolska 100,Kraków,PL,"ul. Opolska 100, Kraków",devops,False,Akamai,http://www.akamai.com,8000,mid,10000.0,14000.0,pln,50.0891857,19.9464743,permanent,2020-05-13 09:14:00+00:00,True,akamai-devops-engineer-ii,https://bucket.justjoin.it/offers/company_logos/thumb/8c9744d5bc33e87b3aebf2f8a559ea946feda5e6.png?1587994221,"[{'name': 'Shell', 'level': 4}, {'name': 'SQL', 'level': 4}, {'name': 'Python', 'level': 4}]"
98,Frontend Developer (Mid/Senior/ Vue.js),Centrum,Katowice,PL,"Centrum, Katowice",javascript,False,Power Media,https://www.power.com.pl/,51-200,mid,7500.0,14500.0,pln,50.2610065,19.0334759,permanent,2020-05-13 09:04:00+00:00,False,power-media-frontend-developer-mid-senior-vue-js,https://bucket.justjoin.it/offers/company_logos/thumb/f735f6ccedef22b419f8d2fb394954f9be926e17.jpg?1589360330,"[{'name': 'CSS', 'level': 4}, {'name': 'HTML', 'level': 4}, {'name': 'Vue.js', 'level': 4}]"
99,PHP Developer,Cegielniana 4a,Kraków,PL,"Cegielniana 4a, Kraków",php,False,Sky-Shop.pl,http://Sky-Shop.pl,25,mid,,,,50.028408,19.935293,permanent,2020-05-13 09:01:00+00:00,True,sky-shop-pl-php-developer,https://bucket.justjoin.it/offers/company_logos/thumb/7945489dd39591906306c1788e81ca35c335dfa9.png?1589360278,"[{'name': 'PHP 7.x', 'level': 5}]"
100,Scrum Master,Puławska 182,Warszawa,PL,"Puławska 182, Warszawa",pm,True,7N,https://www.7n.com,800+,senior,16800.0,19320.0,pln,52.2296756,21.0122287,b2b,2020-05-13 09:00:07.131000+00:00,True,7n-scrum-master-ee209625-24c2-443d-b046-d0e1af75774e,https://bucket.justjoin.it/offers/company_logos/thumb/6fe0b6419c6d39f8cf1898a1ae9f0d6d06fd968c.png?1586336496,"[{'name': 'English', 'level': 4}, {'name': 'Agile', 'level': 4}, {'name': 'Scrum', 'level': 4}]"
101,Analityk Biznesowy ,Królowej Jadwigi,Poznań,PL,"Królowej Jadwigi, Poznań",data,False,ARforce Sp z o.o.,http://www.arforce.pl/,100,mid,,,pln,52.3997872,16.9302429,b2b,2020-05-13 09:00:07.131000+00:00,True,arforce-sp-z-o-o-analityk-biznesowy-poznan,https://bucket.justjoin.it/offers/company_logos/thumb/5b329d1ead43b9e5e321703e0adb4c4ae86daa3d.jpg?1585057244,"[{'name': 'EA; StarUML', 'level': 3}]"
102,Android Developer,Mickiewicza 10/2,Poznań,PL,"Mickiewicza 10/2, Poznań",mobile,True,NextApps,https://nextapps.pl,24,mid,7000.0,14000.0,pln,52.4126772,16.9123905,b2b,2020-05-13 08:53:00+00:00,True,nextapps-android-developer-0bb0688c-024e-4ca7-827b-16b4492bd2fd,https://bucket.justjoin.it/offers/company_logos/thumb/f1e9728b584d9b862da98a02ad83f8ae4805ee38.jpg?1589359921,"[{'name': 'Java', 'level': 4}, {'name': 'Kotlin', 'level': 4}, {'name': 'Communication', 'level': 4}]"
103,Full Stack Java Developer,Centrum,Katowice,PL,"Centrum, Katowice",java,False,Power Media,https://www.power.com.pl/,51-200,senior,10000.0,16000.0,pln,50.2610065,19.0334759,b2b,2020-05-13 08:51:00+00:00,False,power-media-full-stack-java-developer,https://bucket.justjoin.it/offers/company_logos/thumb/b774a9b83d899495834956bba4fb6d1b53e54b92.jpg?1589359823,"[{'name': 'React', 'level': 4}, {'name': 'JavaScript', 'level': 4}, {'name': 'Java', 'level': 4}]"
104,Mid / Senior Unity Developer (m/f/d),Kreuzbergstraße 28,Berlin,DE,"Kreuzbergstraße 28, Berlin",net,True,DECA Games,http://decagames.com,100,mid,,,,52.4897411,13.3780861,b2b,2020-05-13 08:33:00+00:00,True,deca-games-mid-senior-unity-developer-m-f-d,https://bucket.justjoin.it/offers/company_logos/thumb/13d5f5d5c14fe979356b08a1eaa3af3d52a98f36.png?1589302320,"[{'name': 'C#', 'level': 3}, {'name': 'OOP', 'level': 4}, {'name': '.NET C#', 'level': 4}]"
105,Analityk Danych,Arkońska 6/A4,Gdańsk,PL,"Arkońska 6/A4, Gdańsk",data,False,ClickMeeting,https://clickmeeting.com/,70,mid,,,,54.405108,18.577407,permanent,2020-05-13 08:20:00+00:00,True,clickmeeting-analityk-danych,https://bucket.justjoin.it/offers/company_logos/thumb/7dadf2cf191c1baf58e89f880d7506e218387d89.png?1588254890,"[{'name': 'R', 'level': 3}, {'name': 'Tableau', 'level': 4}, {'name': 'MySQL', 'level': 4}]"
106,IT Project Manager,Senatorska 2,Warszawa,PL,"Senatorska 2, Warszawa",pm,False,Batmaid,http://batmaid.ch,67,senior,14000.0,17000.0,pln,52.2466945,21.0124227,b2b,2020-05-13 08:11:00+00:00,False,batmaid-it-project-manager,https://bucket.justjoin.it/offers/company_logos/thumb/b8db4aa22e62034bbdd780792b5832d4ef8e45db.png?1589357410,"[{'name': 'English', 'level': 4}, {'name': 'Agile/Scrum', 'level': 5}, {'name': 'Project Management', 'level': 5}]"
107,Senior React Developer,Plac Kossaka 3/8,Kraków,PL,"Plac Kossaka 3/8, Kraków",javascript,True,Architech Poland Sp. z o.o.,http://www.architech.ca,100,mid,10000.0,14000.0,pln,50.0562866,19.9279255,permanent,2020-05-13 08:00:10.857000+00:00,True,architech-poland-sp-z-o-o-senior-react-developer,https://bucket.justjoin.it/offers/company_logos/thumb/13e5c4297b1e194de83dd3d20d705c29c4eab89d.png?1588059253,"[{'name': 'Node.js Express', 'level': 3}, {'name': 'Redux', 'level': 3}, {'name': 'React', 'level': 4}]"
108,.NET Developer,Centrum,Kraków,PL,"Centrum, Kraków",net,False,dotLinkers,http://dotlinkers.pl/,17,senior,17000.0,20000.0,pln,50.0549033,19.92618,b2b,2020-05-13 08:00:10.857000+00:00,True,dotlinkers-net-developer-724963c7-4e0d-447b-a64f-e1549140bf9a,https://bucket.justjoin.it/offers/company_logos/thumb/d00c8f1ecd6dc0854cd5ac1668353cf11f7ee4c1.jpg?1578922412,"[{'name': 'C#', 'level': 4}, {'name': '.Net', 'level': 4}]"
109,Java Developer,Krakow,Kraków,PL,"Krakow, Kraków",java,False,dotLinkers,http://dotlinkers.pl/,17,senior,15000.0,19000.0,pln,50.0646501,19.9449799,b2b,2020-05-13 08:00:00+00:00,True,dotlinkers-java-developer-6d9e0673-d8da-49a9-8f03-c864c900b762,https://bucket.justjoin.it/offers/company_logos/thumb/162b205f7907bb3f5e152fdafec4d45deddc0c12.jpg?1569415182,"[{'name': 'IntelliJ', 'level': 3}, {'name': 'AWS', 'level': 3}, {'name': 'Java', 'level': 4}]"
110,Marketing Automation Team Leader,Jana Pawła II 22,Warszawa,PL,"Jana Pawła II 22, Warszawa",data,False,Tidio,https://backstage.tidio.com,60,mid,9000.0,14000.0,pln,52.2355943,20.9980939,b2b,2020-05-13 07:37:00+00:00,True,tidio-marketing-automation-team-leader,https://bucket.justjoin.it/offers/company_logos/thumb/765dc96d568fb5bf84d06174aed45691d2c30739.png?1589355409,"[{'name': 'Amplitude', 'level': 3}, {'name': 'Google Analytics', 'level': 4}, {'name': 'HubSpot', 'level': 4}]"
111,Android Developer,Trzy Lipy 3,Gdańsk,PL,"Trzy Lipy 3, Gdańsk",mobile,False,itCraft,https://itcraftapps.com/,>60,senior,7000.0,14000.0,pln,54.3556014,18.5940893,b2b,2020-05-13 07:33:00+00:00,True,itcraft-android-developer-1a831192-468b-4c6b-a4eb-075c0b8bb632,https://bucket.justjoin.it/offers/company_logos/thumb/d9c77ca1b4d833119c1b5223df3e50a86f7e812e.jpg?1589355198,"[{'name': 'English', 'level': 4}, {'name': 'Android', 'level': 5}, {'name': 'Kotlin', 'level': 5}]"
112,Software Test Automation,"Aleja Zwycięstwa, 96/98",Gdynia,PL,"Aleja Zwycięstwa, 96/98, Gdynia",testing,False,Jit Team,https://www.jit.team/,300,mid,8000.0,16000.0,pln,54.494888,18.5381079,b2b,2020-05-13 07:32:00+00:00,True,jit-team-software-test-automation-4bf44900-df94-42fc-af28-3738339c7e04,https://bucket.justjoin.it/offers/company_logos/thumb/6acf9d309c40cbd8544d7a70716acd417519e775.png?1568712120,"[{'name': 'Web Applications', 'level': 3}, {'name': 'Selenium WebDriver', 'level': 3}, {'name': 'Java', 'level': 3}]"
113,Android Developer,"Rejtana, 2-4",Toruń,PL,"Rejtana, 2-4, Toruń",mobile,False,itCraft,https://itcraftapps.com/,>60,senior,7000.0,14000.0,pln,53.0137902,18.5984437,b2b,2020-05-13 07:31:00+00:00,True,itcraft-android-developer-torun,https://bucket.justjoin.it/offers/company_logos/thumb/bfeb4ec7a0410cbfafe0dec3712b11c78d8f4e77.jpg?1589355105,"[{'name': 'English', 'level': 4}, {'name': 'Android', 'level': 5}, {'name': 'Kotlin', 'level': 5}]"
114,iOS Developer,Towarowa 20,Bydgoszcz,PL,"Towarowa 20, Bydgoszcz",mobile,False,itCraft,https://itcraftapps.com/,>60,senior,7000.0,14000.0,pln,53.125391,18.0694589,b2b,2020-05-13 07:29:00+00:00,True,itcraft-ios-developer-0461a381-12c9-416f-972e-4ce70c35f3c4,https://bucket.justjoin.it/offers/company_logos/thumb/7b32af19b90e4ad4117ed0829fd1e80a0064586b.jpg?1589354924,"[{'name': 'English', 'level': 4}, {'name': 'iOS Platform', 'level': 4}, {'name': 'Swift', 'level': 4}]"
115,Android Developer,Towarowa 20,Bydgoszcz,PL,"Towarowa 20, Bydgoszcz",mobile,False,itCraft,https://itcraftapps.com/,>60,senior,7000.0,14000.0,pln,53.1320281,17.9922673,b2b,2020-05-13 07:29:00+00:00,True,itcraft-android-developer-b4893acd-351c-4401-909c-0dec63158513,https://bucket.justjoin.it/offers/company_logos/thumb/75913c79e211cd10e63bf428b8e9e6dbc0547cea.jpg?1589354983,"[{'name': 'English', 'level': 4}, {'name': 'Android', 'level': 5}, {'name': 'Kotlin', 'level': 5}]"
116,iOS Developer,"Rejtana, 2-4",Toruń,PL,"Rejtana, 2-4, Toruń",mobile,False,itCraft,https://itcraftapps.com/,>60,senior,7000.0,14000.0,pln,53.0200918,18.608796,b2b,2020-05-13 07:28:00+00:00,True,itcraft-ios-developer-1e1f5fab-e14c-48e8-9def-0ca77cf2700b,https://bucket.justjoin.it/offers/company_logos/thumb/9074630eb54fc2016a40f819ecc1251b50a55110.jpg?1589354889,"[{'name': 'English', 'level': 4}, {'name': 'iOS Platform', 'level': 4}, {'name': 'Swift', 'level': 4}]"
117,Fullstack Engineer,Pokorna 2/947,Warszawa,PL,"Pokorna 2/947, Warszawa",python,True,Sunscrapers Sp. z o. o.,https://sunscrapers.com/,30+,mid,10000.0,18000.0,pln,52.2547031,20.995033,b2b,2020-05-13 07:26:00+00:00,True,sunscrapers-sp-z-o-o-fullstack-developer,https://bucket.justjoin.it/offers/company_logos/thumb/b546d6ff08d7579fcb0f042e15df5d403205460b.png?1539348276,"[{'name': 'React', 'level': 4}, {'name': 'JavaScript (ES6+)', 'level': 4}, {'name': 'Python', 'level': 4}]"
118,iOS Developer,Trzy Lipy 3,Gdańsk,PL,"Trzy Lipy 3, Gdańsk",mobile,False,itCraft,https://itcraftapps.com/,>60,senior,7000.0,14000.0,pln,54.3556014,18.5940893,b2b,2020-05-13 07:24:00+00:00,True,itcraft-ios-developer-37f3c1a3-dfc0-42d3-be8f-fff3bc69ead4,https://bucket.justjoin.it/offers/company_logos/thumb/49fda89df0696d7662df34e76485443e5fa756e0.jpg?1589354673,"[{'name': 'English', 'level': 4}, {'name': 'iOS Platform', 'level': 4}, {'name': 'Swift', 'level': 4}]"
119,Java/Node Backend Developer,Towarowa 20,Bydgoszcz,PL,"Towarowa 20, Bydgoszcz",java,False,itCraft,https://itcraftapps.com/,>60,mid,6000.0,10000.0,pln,53.125391,18.0694589,b2b,2020-05-13 07:22:00+00:00,True,itcraft-regular-backend-developer-bydgoszcz,https://bucket.justjoin.it/offers/company_logos/thumb/e2ce948fe7e6900582fcf6e8c360f85ba04bc6b1.jpg?1589354535,"[{'name': 'Node.js', 'level': 4}, {'name': 'Spring', 'level': 5}, {'name': 'Java', 'level': 5}]"
120,Java/Node Backend Developer,Trzy lipy 3,Gdańsk,PL,"Trzy lipy 3, Gdańsk",java,False,itCraft,https://itcraftapps.com/,>60,mid,6000.0,10000.0,pln,54.3556014,18.5940893,b2b,2020-05-13 07:21:00+00:00,True,itcraft-regular-backend-developer,https://bucket.justjoin.it/offers/company_logos/thumb/d2fb985d404c63e80febb6075b600eaf53800565.jpg?1589354450,"[{'name': 'Node.js', 'level': 4}, {'name': 'Spring', 'level': 5}, {'name': 'Java', 'level': 5}]"
121,Java/Node Backend Developer,"Rejtana, 2-4",Toruń,PL,"Rejtana, 2-4, Toruń",java,False,itCraft,https://itcraftapps.com/,>60,mid,6000.0,10000.0,pln,53.0137902,18.5984437,b2b,2020-05-13 07:21:00+00:00,True,itcraft-regular-backend-developer-torun,https://bucket.justjoin.it/offers/company_logos/thumb/05dc95f9cccd4772fba12145fde87928bc52df1e.jpg?1589354498,"[{'name': 'Node.js', 'level': 4}, {'name': 'Spring', 'level': 5}, {'name': 'Java', 'level': 5}]"
122,Frontend Developer,Towarowa 20,Bydgoszcz,PL,"Towarowa 20, Bydgoszcz",javascript,False,itCraft,https://itcraftapps.com/,>60,senior,8000.0,12000.0,pln,53.125391,18.0694589,b2b,2020-05-13 07:19:00+00:00,True,itcraft-frontend-developer-bydgoszcz,https://bucket.justjoin.it/offers/company_logos/thumb/dfda9276f801e76f3bf9e0dcf6de67d6a219f023.jpg?1589354361,"[{'name': 'English', 'level': 4}, {'name': 'ReactJS', 'level': 4}, {'name': 'Angular', 'level': 4}]"
123,Frontend Developer,Trzy lipy 3,Gdańsk,PL,"Trzy lipy 3, Gdańsk",javascript,False,itCraft,https://itcraftapps.com/,>60,senior,8000.0,12000.0,pln,54.3556014,18.5940893,b2b,2020-05-13 07:18:00+00:00,True,itcraft-frontend-developer-0487f7b4-368b-41a2-81a9-0e7b24f3a921,https://bucket.justjoin.it/offers/company_logos/thumb/dda2799bfcb8feb6e8840804eced9962d3756a29.jpg?1589354241,"[{'name': 'English', 'level': 4}, {'name': 'ReactJS', 'level': 4}, {'name': 'Angular', 'level': 4}]"
124,Frontend Developer,"Rejtana, 2-4",Toruń,PL,"Rejtana, 2-4, Toruń",javascript,False,itCraft,https://itcraftapps.com/,>60,senior,8000.0,12000.0,pln,53.0200918,18.608796,b2b,2020-05-13 07:18:00+00:00,True,itcraft-frontend-developer-9005bd03-39cf-40f0-b5ea-a176b1da7da3,https://bucket.justjoin.it/offers/company_logos/thumb/f9b38d54356e6a4cd0915c4a2012ff3b25a87244.jpg?1589354322,"[{'name': 'English', 'level': 4}, {'name': 'ReactJS', 'level': 4}, {'name': 'Angular', 'level': 4}]"
125,Java Developer,Pod Krzywa Wieza 14,Toruń,PL,"Pod Krzywa Wieza 14, Toruń",java,True,Bitcoin Technologies,http://shitcoins.club,20-30,mid,10000.0,15000.0,pln,53.008593,18.60202,b2b,2020-05-13 07:00:06.735000+00:00,True,bitcoin-technologies-java-developer,https://bucket.justjoin.it/offers/company_logos/thumb/fd2fbd87f96b058684a46c3168cce8ab9262919a.png?1587625266,"[{'name': 'Spring Boot', 'level': 4}, {'name': 'Git', 'level': 4}, {'name': 'Java 11', 'level': 4}]"
126,Junior DevOps Engineer,Wroniecka 18/5,Poznań,PL,"Wroniecka 18/5, Poznań",devops,False,Tenesys,https://tenesys.io,15-25,junior,5500.0,11000.0,pln,52.409915,16.934371,b2b,2020-05-13 07:00:06.735000+00:00,True,tenesys-junior-devops-engineer,https://bucket.justjoin.it/offers/company_logos/thumb/c1a629a28416a6b92b3aff30097129d0a8f50a9e.png?1585895924,"[{'name': 'Databases', 'level': 2}, {'name': 'Nginx', 'level': 2}, {'name': 'Linux', 'level': 2}]"
127,DevOps Engineer,Wroniecka 18/5,Poznań,PL,"Wroniecka 18/5, Poznań",devops,False,Tenesys,http://tenesys.io,15-25,mid,12000.0,15000.0,pln,52.409915,16.934371,b2b,2020-05-13 07:00:06.735000+00:00,True,tenesys-devops-engineer-3b1d38a1-f465-4849-8357-b7d0169fe56b,https://bucket.justjoin.it/offers/company_logos/thumb/2908618039b675952d89c8c1c75b9439e55f1f0a.png?1585896587,"[{'name': 'Jenkins', 'level': 3}, {'name': 'Amazon AWS', 'level': 3}, {'name': 'Linux', 'level': 4}]"
128,QT Tester,Tarnogórska 251,Gliwice,PL,"Tarnogórska 251, Gliwice",net,False,APA Sp. z o.o.,https://apagroup.pl,100,junior,5000.0,8000.0,pln,50.3297682,18.7068115,b2b,2020-05-13 07:00:06.735000+00:00,True,apa-sp-z-o-o-qt-tester,https://bucket.justjoin.it/offers/company_logos/thumb/1a06cb39bb911b2f6ce41f218945b8130e7eca03.png?1585895570,"[{'name': 'Git', 'level': 1}, {'name': 'JIRA', 'level': 1}, {'name': 'SQL', 'level': 3}]"
129,Senior BI,Inflancka,Warszawa,PL,"Inflancka, Warszawa",other,False,ManpowerGroup,http://www.experis.pl,4000,senior,21000.0,24000.0,pln,52.254685,20.9919658,b2b,2020-05-13 06:46:00+00:00,True,manpowergroup-senior-bi,https://bucket.justjoin.it/offers/company_logos/thumb/de699b5722f78ce2fb529114a5ff02e12810930e.png?1589352352,"[{'name': 'ETL', 'level': 3}, {'name': 'Amazon AWS', 'level': 3}, {'name': 'Power BI', 'level': 4}]"
130,Analityk Systemowy,85741,Bydgoszcz,PL,"85741, Bydgoszcz",other,False,ManpowerGroup,http://www.experis.pl,4000,mid,15000.0,17000.0,pln,53.1274237,18.0652522,b2b,2020-05-13 06:36:00+00:00,True,manpowergroup-analityk-systemowy,https://bucket.justjoin.it/offers/company_logos/thumb/96d2bf84c5401b49594249d21dead569b5106b42.png?1589351190,"[{'name': 'UML', 'level': 3}, {'name': 'JIRA', 'level': 3}]"
131,UX/UI Designer,ul. Brzozowa 4,Nowy Sącz,PL,"ul. Brzozowa 4, Nowy Sącz",ux,False,Estima Group,https://estima.group/,20-30,mid,,,,49.6495306,20.6973584,b2b,2020-05-13 06:06:00+00:00,True,estima-group-ux-ui-designer,https://bucket.justjoin.it/offers/company_logos/thumb/a0f2e97a87dce7e3e46880ea052cc170944b5280.jpg?1589349879,"[{'name': 'UXPin', 'level': 4}, {'name': 'Adobe XD', 'level': 4}, {'name': 'Sketch', 'level': 4}]"
132,Python Developer (Junior/Mid),Osowa,Gdańsk,PL,"Osowa, Gdańsk",python,True,Parleto,https://www.parleto.io/,20,junior,,,,54.4186646,18.4793815,permanent,2020-05-12 20:00:06.497000+00:00,True,parleto-python-developer-junior-mid,https://bucket.justjoin.it/offers/company_logos/thumb/ea3d00e59903ba96cf37d752f1e0dd8c8b42b566.jpg?1585683548,"[{'name': 'Linux', 'level': 1}, {'name': 'Django', 'level': 2}, {'name': 'Python', 'level': 2}]"
133,Frontend Developer Vue.JS (zdalnie),Centrum,Warszawa,PL,"Centrum, Warszawa",javascript,True,Football Team,https://footballteam.pl/,30,mid,,,pln,52.232314,21.008669,b2b,2020-05-12 20:00:06.497000+00:00,True,83-frontend-developer-vue-js-zdalnie,https://bucket.justjoin.it/offers/company_logos/thumb/69f55d2f99a2ff8deac1a3c8f235a9c640f14784.png?1554127666,"[{'name': 'JS/jQuery', 'level': 4}, {'name': 'HTML / CSS', 'level': 4}, {'name': 'Vue.js', 'level': 4}]"
134,Frontend Developer,ken 36,Warszawa,PL,"ken 36, Warszawa",javascript,True,Deolon sp. z o.o.,http://Example.com,2-5,senior,15000.0,28000.0,pln,52.1397007,21.0585184,permanent,2020-05-12 19:00:07.083000+00:00,True,deolon-sp-z-o-o-frontend-developer,https://bucket.justjoin.it/offers/company_logos/thumb/5b3a52369afd0a5ad6938be9f3a46864780803cf.png?1588012029,"[{'name': 'Git', 'level': 4}, {'name': 'HTML5', 'level': 4}, {'name': 'Vue.js', 'level': 5}]"
135,Senior Product Designer,Małe Garbary 9,Poznań,PL,"Małe Garbary 9, Poznań",ux,True,Netguru,http://netguru.com,600,senior,11500.0,17250.0,pln,52.4120673,16.9383625,b2b,2020-05-12 19:00:07.083000+00:00,True,netguru-senior-product-designer,https://bucket.justjoin.it/offers/company_logos/thumb/2f2dc7ad6466840fa49ca760bebf84c36ab4de47.png?1521705583,"[{'name': 'English', 'level': 4}, {'name': 'Product design', 'level': 4}]"
136,Senior Product Designer (Fintech),Małe Garbary 9,Poznań,PL,"Małe Garbary 9, Poznań",ux,True,Netguru,http://netguru.com,600,senior,11500.0,17250.0,pln,52.4120673,16.9383625,b2b,2020-05-12 19:00:07.083000+00:00,True,netguru-senior-product-designer-fintech,https://bucket.justjoin.it/offers/company_logos/thumb/ad5763fdd89b221932178d3fee4a3d346b2c0efa.png?1584989392,"[{'name': 'English', 'level': 4}, {'name': 'Product design', 'level': 4}]"
137,PHP Laravel Junior Developer,Gronowa 22,Poznań,PL,"Gronowa 22, Poznań",php,True,flow2code,http://flow2code.com,20+,junior,3500.0,7000.0,pln,52.4300663,16.9345359,mandate_contract,2020-05-12 18:00:06.777000+00:00,True,flow2code-php-laravel-senior-developer,https://bucket.justjoin.it/offers/company_logos/thumb/0b7e665e48fefb53b8ccee44072d8f0a0baf2473.jpg?1584985155,"[{'name': 'MySQL', 'level': 4}, {'name': 'Laravel', 'level': 4}, {'name': 'PHP 7.x', 'level': 4}]"
138,Administrator i Architekt ICT,Nowogrodzka,Warszawa,PL,"Nowogrodzka, Warszawa",other,False,NBC Sp. z o.o.,https://www.nbc.com.pl/,500+,senior,16000.0,22000.0,pln,52.2271389,21.0045946,b2b,2020-05-12 18:00:06.777000+00:00,True,nbc-sp-z-o-o-administratorzy-i-architekci-ict,https://bucket.justjoin.it/offers/company_logos/thumb/fef9cf0407a197f69bb8b67d855c96fc434e508d.png?1587576979,"[{'name': 'SRTP', 'level': 4}, {'name': 'RTP', 'level': 4}, {'name': 'SPI', 'level': 4}]"
139,Senior .Net Developer,Idzikowskiego 16,Warszawa,PL,"Idzikowskiego 16, Warszawa",net,False,Set on Target,http://setontarget.com/,10-15,senior,15000.0,18000.0,pln,52.1924064,21.046838,permanent,2020-05-12 17:25:00+00:00,True,set-on-target-net-developer-senior-net-developer,https://bucket.justjoin.it/offers/company_logos/thumb/afe417255a59a61e158b41f42e6e455df58fb487.png?1581413364,"[{'name': 'Visual Studio', 'level': 4}, {'name': 'WPF', 'level': 4}, {'name': '.Net', 'level': 4}]"
140,C++ Software Developer,2,Katowice,PL,"2, Katowice",c,False,IC Resources,https://ic-resources.com/,1000-10000,junior,14000.0,17001.0,pln,50.2718824,19.0199764,permanent,2020-05-12 17:00:06.819000+00:00,True,ic-resources-c-software-developer,https://bucket.justjoin.it/offers/company_logos/thumb/b27957ff0952df217d7f3843574483202721ac23.png?1586191661,"[{'name': 'Linux', 'level': 1}, {'name': 'C++ 14', 'level': 1}, {'name': 'C++11', 'level': 1}]"
141,ADMINISTRATOR Microsoft SQL Server,Zajęcza,Warszawa,PL,"Zajęcza, Warszawa",other,False,SHIMI,http://www.shimi.pl,<10,mid,13000.0,18000.0,pln,52.2390132,21.0274757,b2b,2020-05-12 17:00:06.819000+00:00,True,shimi-administrator-microsoft-sql-server-warszawa,https://bucket.justjoin.it/offers/company_logos/thumb/31c23e658abc67134c1fac22830d2b25ddfd773e.jpg?1585847341,"[{'name': 'MS SQL', 'level': 4}, {'name': 'SQL', 'level': 4}, {'name': 'MS SQL Server', 'level': 5}]"
142,Mid/Senior Java Developer,Azymutalna 11,Gdańsk,PL,"Azymutalna 11, Gdańsk",java,False,Genesis Global Ltd,https://genesis.com.mt/careers/,150+,mid,9000.0,16000.0,pln,54.3869321,18.4642883,b2b,2020-05-12 17:00:06.819000+00:00,True,genesis-global-ltd-java-developer,https://bucket.justjoin.it/offers/company_logos/thumb/2ba77139da2f27762949de969f1ab165f8665684.jpg?1575900273,"[{'name': 'MySQL / PostgreSQL', 'level': 3}, {'name': 'Agile / Scrum', 'level': 3}, {'name': 'Java', 'level': 4}]"
143,.NET Developer Fullstack,Centrum,Łódź,PL,"Centrum, Łódź",net,False,ITDS,http://www.itds.pl,200+,mid,17000.0,18900.0,pln,51.7709492,19.4617189,b2b,2020-05-12 17:00:00+00:00,True,itds-net-developer-fullstack-lodz,https://bucket.justjoin.it/offers/company_logos/thumb/44356d42e95d07364ae46acdff482a68be0aa421.png?1586277571,"[{'name': 'Visual Studio', 'level': 4}, {'name': '.Net', 'level': 4}, {'name': 'C#', 'level': 4}]"
144,Android Developer,Zlota 59,Warszawa,PL,"Zlota 59, Warszawa",mobile,False,ITDS,http://www.itds.pl,200+,mid,14000.0,19000.0,pln,52.2302995,21.0014321,b2b,2020-05-12 16:00:06.658000+00:00,False,itds-android-developer,https://bucket.justjoin.it/offers/company_logos/thumb/24d93d7ef6a4e6d1bfac8b27551e8a6313076ed4.png?1582639068,"[{'name': 'Dagger 2', 'level': 4}, {'name': 'Java', 'level': 5}, {'name': 'Kotlin', 'level': 5}]"
145,Devops,Center,Wrocław,PL,"Center, Wrocław",devops,False,ITDS,http://www.itds.pl,200+,mid,14000.0,19600.0,pln,51.1076886,17.0779123,b2b,2020-05-12 16:00:06.658000+00:00,False,itds-devops,https://bucket.justjoin.it/offers/company_logos/thumb/ab7969790cce27a7ab976ccce7de01c9355a4277.png?1582546095,"[{'name': 'Ansible or Salt', 'level': 3}, {'name': 'Python or Bash', 'level': 3}, {'name': 'Linux', 'level': 3}]"
146,.Net Developer,Centrum,Warszawa,PL,"Centrum, Warszawa",net,False,Eyzee S.A.,http://www.eyzee.com,50+,mid,9000.0,13500.0,pln,52.232314,21.008669,b2b,2020-05-12 16:00:06.658000+00:00,True,eyzee-s-a-net-developer-warszawa,https://bucket.justjoin.it/offers/company_logos/thumb/9bcabed7a4ecf0cc342190bb123431c76b79198c.jpg?1587568524,"[{'name': 'Entity Framework 6.1', 'level': 3}, {'name': '.NET Framework 4.5.1', 'level': 4}, {'name': 'ASP.NET.MVC 4/5.2', 'level': 4}]"
147,Junior Backend Developer,Jana Kazimierza 5,Warszawa,PL,"Jana Kazimierza 5, Warszawa",php,False,Valueadd,http://valueadd.pl,30+,junior,4000.0,8000.0,pln,52.225956,20.9498109,permanent,2020-05-12 16:00:06.658000+00:00,True,valueadd-junior-backend-developer-c2071334-252f-4ba8-ac5a-4018e1232274,https://bucket.justjoin.it/offers/company_logos/thumb/21183616445b6d9ec1e56ff456b18087c334fbb6.png?1588001752,"[{'name': 'Git', 'level': 2}, {'name': 'MySQL', 'level': 2}, {'name': 'PHP', 'level': 2}]"
148,Python Developer (Fullstack with React),Złota 59,Warszawa,PL,"Złota 59, Warszawa",python,False,ITDS,http://www.itds.pl,200+,mid,17000.0,18800.0,pln,52.2302995,21.0014321,b2b,2020-05-12 16:00:00+00:00,False,itds-python-developer-fullstack-with-react,https://bucket.justjoin.it/offers/company_logos/thumb/2d8472f27a46b85dd19e056b220a24cb9877b297.png?1582545774,"[{'name': 'Flask', 'level': 3}, {'name': 'Django', 'level': 3}, {'name': 'Python', 'level': 3}]"
149,JS Developer *Angular2+/Node.JS,Złota 59,Warszawa,PL,"Złota 59, Warszawa",javascript,False,ITDS,http://www.itds.pl,200+,mid,14000.0,24000.0,pln,52.2302995,21.0014321,b2b,2020-05-12 16:00:00+00:00,False,itds-js-developer-angular2-node-js,https://bucket.justjoin.it/offers/company_logos/thumb/2c2a9388fefd145dc7a794a188704fc053167cda.png?1582549653,"[{'name': 'MongoDB', 'level': 3}, {'name': 'Node.js', 'level': 3}, {'name': 'Angular 2+', 'level': 3}]"
150,.NET Developer (Fullstack),Złota 59,Warszawa,PL,"Złota 59, Warszawa",net,False,ITDS,http://www.itds.pl,200+,senior,14000.0,18000.0,pln,52.2307531,21.0020359,b2b,2020-05-12 16:00:00+00:00,False,itds-net-developer-fullstack-4f169ecd-c320-4c67-9371-181571c15cd5,https://bucket.justjoin.it/offers/company_logos/thumb/df7fd48cc9cbbd2aa0bc9233479050d9c600aa66.png?1578910043,"[{'name': 'MsSQL', 'level': 4}, {'name': 'HTML5', 'level': 4}, {'name': '.Net', 'level': 4}]"
151,Elixir Developer,ul. Droga Dębińska 3a/3,Poznań,PL,"ul. Droga Dębińska 3a/3, Poznań",ruby,False,AppUnite,https://appunite.com,80+,mid,7000.0,11000.0,pln,52.3977779,16.935533,b2b,2020-05-12 16:00:00+00:00,True,appunite-backend-developer-elixir,https://bucket.justjoin.it/offers/company_logos/thumb/22f3ad736e1bc02190ff8beb9d4c55a4de297104.png?1572275788,"[{'name': 'Phoenix', 'level': 3}, {'name': 'Elixir', 'level': 3}, {'name': 'Web Applications', 'level': 4}]"
152,React Developer,Złota 59,Warszawa,PL,"Złota 59, Warszawa",javascript,False,ITDS,http://www.itds.pl,200+,mid,12000.0,18000.0,pln,52.2304017,21.0012089,b2b,2020-05-12 16:00:00+00:00,False,itds-react-developer,https://bucket.justjoin.it/offers/company_logos/thumb/b1161f4c28a24dc04307ac7fc67afb302b8b988e.png?1579696218,"[{'name': 'JavaScript', 'level': 4}, {'name': 'HTML5', 'level': 4}, {'name': 'ReactJS', 'level': 4}]"
153,Devops Engineer,Złota 59,Warszawa,PL,"Złota 59, Warszawa",devops,False,ITDS,http://www.itds.pl,200+,mid,14000.0,19000.0,pln,52.2302995,21.0014321,b2b,2020-05-12 16:00:00+00:00,False,itds-devops-engineer,https://bucket.justjoin.it/offers/company_logos/thumb/4115e46978c00248314fc2fbe51220b621594b80.png?1582546640,"[{'name': 'API REST/SOAP', 'level': 3}, {'name': 'Kubernetes', 'level': 3}, {'name': 'Docker', 'level': 3}]"
154,Java Engineer,Centrum,Kraków,PL,"Centrum, Kraków",java,False,Vertex Solutions,https://www.vertex-solutions.co.uk/,10-50,senior,22000.0,25000.0,pln,50.0549033,19.92618,b2b,2020-05-12 15:16:00+00:00,True,vertex-solutions-java-engineer,https://bucket.justjoin.it/offers/company_logos/thumb/c51202d022ccb3aea61bdc9e9565166437ea63ec.jpg?1587124033,"[{'name': 'GCP/AWS', 'level': 3}, {'name': 'Microservice Architecture', 'level': 3}, {'name': 'Java 8', 'level': 5}]"
155,Java Architect,Centrum ,Kraków,PL,"Centrum , Kraków",java,False,Vertex Solutions,https://www.vertex-solutions.co.uk/,10-50,senior,23000.0,28000.0,pln,50.0549033,19.92618,b2b,2020-05-12 15:16:00+00:00,True,vertex-solutions-java-architect-krakow,https://bucket.justjoin.it/offers/company_logos/thumb/d2616eb41641094bdf0a1913850b5632dabee2ea.jpg?1586254203,"[{'name': 'Microservice Architecture', 'level': 4}, {'name': 'Spring Boot', 'level': 5}, {'name': 'Java 8', 'level': 5}]"
156,Senior Software Engineer,Centrum,Kraków,PL,"Centrum, Kraków",java,False,Vertex Solutions,https://www.vertex-solutions.co.uk/,10-50,senior,21000.0,25000.0,pln,50.0549033,19.92618,b2b,2020-05-12 15:16:00+00:00,True,vertex-solutions-senior-software-engineer,https://bucket.justjoin.it/offers/company_logos/thumb/2cd439f9a8ce8af22943972bd7e5a184ad392ffa.jpg?1586255551,"[{'name': 'Docker', 'level': 4}, {'name': 'AWS', 'level': 4}, {'name': 'Java', 'level': 5}]"
157,Junior UX Designer,ul. Małopolska 2,Poznań,PL,"ul. Małopolska 2, Poznań",ux,False,Spacecamp,https://manonthemoon.pl/,64,junior,,,,52.4216477,16.9080243,permanent,2020-05-12 15:04:11.474000+00:00,True,spacecamp-junior-ux-designer,https://bucket.justjoin.it/offers/company_logos/thumb/faba52af7bde42023c556009a82006fec886a89c.png?1589295812,"[{'name': 'Axure RP', 'level': 2}, {'name': 'Sketch', 'level': 2}, {'name': 'UX', 'level': 2}]"
158,Mid Web Developer,"Raszyn, Jaworskiego",Warszawa,PL,"Raszyn, Jaworskiego, Warszawa",javascript,False,PolCam Systems Sp. z o.o.,http://www.polcam.com,10-23,mid,7500.0,15000.0,pln,52.1603482,20.9187433,permanent,2020-05-12 15:00:07.452000+00:00,True,polcam-systems-sp-z-o-o-junior-it,https://bucket.justjoin.it/offers/company_logos/thumb/989e28d19464e463e940557280501b183119fbf7.png?1584453487,"[{'name': 'Node.js', 'level': 3}, {'name': 'Redux', 'level': 4}, {'name': 'ReactJS', 'level': 4}]"
159,IT Project Manager Ecommerce,Rzymowskiego 31,Warszawa,PL,"Rzymowskiego 31, Warszawa",pm,False,Conversion,http://www.conversion.pl,10-25,senior,10000.0,15000.0,pln,52.1694401,21.0091724,b2b,2020-05-12 15:00:07.452000+00:00,True,conversion-it-project-manager-ecommerce,https://bucket.justjoin.it/offers/company_logos/thumb/02b05ab0b5ceebbcb5ba98ab2e13c289ec6aad65.png?1587567085,"[{'name': 'JIRA', 'level': 4}, {'name': 'Magento 2', 'level': 4}]"
160,Rust Software Engineer,Grabiszyńska 251a,Wrocław,PL,"Grabiszyńska 251a, Wrocław",other,False,ANIXE,https://anixe.pl/,150-200,mid,7000.0,13500.0,pln,51.096747,16.985475,permanent,2020-05-12 15:00:07.452000+00:00,True,anixe-rust-software-engineer,https://bucket.justjoin.it/offers/company_logos/thumb/4d5ee197106c32bd3b6552eb30b3891cde538152.jpg?1554456345,"[{'name': 'C#', 'level': 1}, {'name': 'Web Services', 'level': 3}, {'name': 'Rust', 'level': 3}]"
161,iOS Developer,Rondo Daszyńskiego,Warszawa,PL,"Rondo Daszyńskiego, Warszawa",mobile,False,dotLinkers,http://dotlinkers.pl,17,senior,18000.0,25800.0,pln,52.2300538,20.984534,b2b,2020-05-12 15:00:07.452000+00:00,True,dotlinkers-ios-developer,https://bucket.justjoin.it/offers/company_logos/thumb/13a20fe1b575da5fcfd957b1e2b7a5cee589afb9.jpg?1570693557,"[{'name': 'Unit Testing', 'level': 4}, {'name': 'iOS', 'level': 5}, {'name': 'Swift', 'level': 5}]"
162,C# Software Engineer,Grabiszyńska 251a,Wrocław,PL,"Grabiszyńska 251a, Wrocław",net,False,ANIXE,http://www.anixe.pl,150-200,mid,7000.0,13500.0,pln,51.096747,16.985475,permanent,2020-05-12 15:00:07.452000+00:00,True,anixe-c-software-engineer,https://bucket.justjoin.it/offers/company_logos/thumb/49273aaa4d2fbf3375174a78072ff13ec09ef64a.jpg?1554471740,"[{'name': '.NET Core', 'level': 3}, {'name': 'Linux', 'level': 4}, {'name': 'C# / .NET', 'level': 4}]"
163,Senior C/C++ Software Engineer,Center,Katowice,PL,"Center, Katowice",c,False,IC Resources,https://ic-resources.com/,1000-10000,senior,13000.0,20000.0,pln,50.2648919,19.0237815,permanent,2020-05-12 15:00:07.452000+00:00,True,ic-resources-senior-c-c-software-engineer,https://bucket.justjoin.it/offers/company_logos/thumb/48672e54643a0d665880c7a7ffe387bb44714ccc.png?1585761667,"[{'name': 'C', 'level': 1}, {'name': 'Linux', 'level': 4}, {'name': 'C++', 'level': 4}]"
164,Web Developer,Chmielna 132,Warszawa,PL,"Chmielna 132, Warszawa",javascript,False,NBC Sp. z o.o.,http://nbc.com.pl,500+,mid,16800.0,21000.0,pln,52.2278098,20.992912,b2b,2020-05-12 15:00:07.452000+00:00,True,nbc-sp-z-o-o-web-developer-4a5bfa83-06e8-4924-9864-3994de5a4fc7,https://bucket.justjoin.it/offers/company_logos/thumb/c921068533a2b0189e80864676cf2adb50685a1f.png?1588862603,"[{'name': 'HTML', 'level': 4}, {'name': 'JavaScript', 'level': 4}, {'name': 'Angular 2+', 'level': 4}]"
165,Senior Backend Developer,326 E 35th St,New York,US,"326 E 35th St, New York",php,True,Gizer,http://gizer.io,15,senior,18000.0,22000.0,pln,40.7446659,-73.9741341,permanent,2020-05-12 15:00:07.452000+00:00,False,gizer-senior-backend-developer,https://bucket.justjoin.it/offers/company_logos/thumb/a7b0b27a2ebcc9577fc6f5bab8c2920888627929.png?1582260656,"[{'name': 'Symfony 4', 'level': 5}, {'name': 'PHP', 'level': 5}]"
166,Java Developer,Dąbrowskiego 247/249,Łódź,PL,"Dąbrowskiego 247/249, Łódź",java,False,Media4U,https://www.media4u.pl/,<100,senior,,,,51.7320714,19.5243802,permanent,2020-05-12 14:48:00+00:00,True,media4u-java-developer-lodz,https://bucket.justjoin.it/offers/company_logos/thumb/39363dac1d6aceb25edb77e738d443a35996b4dc.png?1589294873,"[{'name': 'JUnit', 'level': 4}, {'name': 'Spring Framework', 'level': 4}, {'name': 'Java', 'level': 5}]"
167,Tech Lead with PHP,Twarda 18,Warszawa,PL,"Twarda 18, Warszawa",php,False,Westwing,http://www.westwing.pl,1500,senior,14000.0,20000.0,pln,52.2347064,20.9993674,permanent,2020-05-12 14:22:00+00:00,True,westwing-tech-lead-with-php,https://bucket.justjoin.it/offers/company_logos/thumb/827e712cd3c0148f223adee024ab403e1762e13f.jpg?1587752040,"[{'name': 'English', 'level': 4}, {'name': 'MySQL', 'level': 4}, {'name': 'PHP', 'level': 4}]"
168,Senior Software Engineer PHP,Twarda 18,Warszawa,PL,"Twarda 18, Warszawa",php,False,Westwing,http://www.westwing.pl,1500,senior,10000.0,15000.0,pln,52.2347064,20.9993674,permanent,2020-05-12 14:22:00+00:00,True,westwing-senior-software-engineer-php,https://bucket.justjoin.it/offers/company_logos/thumb/be264df6cc8b29afa36aa104bf97c45634b2d0ff.jpg?1587751653,"[{'name': 'Git', 'level': 3}, {'name': 'MySQL', 'level': 4}, {'name': 'PHP', 'level': 4}]"
169,Risk Management Contractor,"Avenue des Arts 9, 1210",Sint-Joost-ten-Node,BE,"Avenue des Arts 9, 1210, Sint-Joost-ten-Node",python,False,Finalyse,https://www.finalyse.com/,80,mid,7200.0,14000.0,eur,50.8481038,4.3698413,b2b,2020-05-12 14:13:00+00:00,True,finalyse-risk-management-contractor-sint-joost-ten-node,https://bucket.justjoin.it/offers/company_logos/thumb/91407cf981e67b8158f7a5e96456b0d647ea173f.jpg?1589292449,"[{'name': 'VBA', 'level': 4}, {'name': 'R', 'level': 4}, {'name': 'Python', 'level': 4}]"
170,DevOps Engineer (online recruitment),ul. Górnych Wałów 26,Gliwice,PL,"ul. Górnych Wałów 26, Gliwice",devops,False,Brainhub Sp. z. o. o.,https://brainhub.eu,60+,mid,7000.0,13000.0,pln,50.2934057,18.6629247,b2b,2020-05-12 14:11:00+00:00,True,brainhub-sp-z-o-o-devops-engineer-online-recruitment,https://bucket.justjoin.it/offers/company_logos/thumb/63537217ba00efd3a2566dff293ffa692f79ad03.png?1585321453,"[{'name': 'DevOps', 'level': 3}]"
171,SIEM Administrator,Grzybowska 62,Warszawa,PL,"Grzybowska 62, Warszawa",security,False,Operator Chmury Krajowej,https://chmurakrajowa.pl/,100,mid,9000.0,12000.0,pln,52.2340597,20.9863397,permanent,2020-05-12 14:06:00+00:00,True,operator-chmury-krajowej-siem-administrator-warszawa,https://bucket.justjoin.it/offers/company_logos/thumb/9d1a3d1ae15eb2bcb6d599da1135f7ee20c7bfdd.png?1589292234,"[{'name': 'Network', 'level': 4}, {'name': 'QRadar', 'level': 4}, {'name': 'SIEM', 'level': 4}]"
172,Senior Front-End Developer,Al. Jerozolimskie 136,Warszawa,PL,"Al. Jerozolimskie 136, Warszawa",javascript,False,CheckWare,https://checkware.com/en,30 - 40,senior,18000.0,21000.0,pln,52.2209642,20.9723947,permanent,2020-05-12 14:00:06.790000+00:00,False,checkware-senior-front-end-developer,https://bucket.justjoin.it/offers/company_logos/thumb/df6600e9d98652ab9744903e31eb427c082ea5de.png?1570016415,"[{'name': 'backbone.js', 'level': 1}, {'name': 'Vue.js', 'level': 3}, {'name': 'JavaScript', 'level': 4}]"
173,QA Automation Engineer,Kraków,Kraków,PL,"Kraków, Kraków",testing,False,dotLinkers,http://dotlinkers.pl/,17,mid,12000.0,17000.0,pln,50.0646501,19.9449799,b2b,2020-05-12 14:00:06.790000+00:00,True,dotlinkers-qa-automation-engineer,https://bucket.justjoin.it/offers/company_logos/thumb/c24459915148d2eb56a2db8273586faeb6d4390b.jpg?1586265925,"[{'name': '.Net', 'level': 3}, {'name': 'C#', 'level': 3}, {'name': 'Test Automation', 'level': 4}]"
174,Frontend (Angular) Developer,Komandorska 12,Wrocław,PL,"Komandorska 12, Wrocław",javascript,False,Better Software Group S.A.,https://bsgroup.eu/,80+,mid,10000.0,15000.0,pln,51.1000899,17.0311999,b2b,2020-05-12 14:00:06.790000+00:00,False,better-software-group-s-a-frontend-angular-developer,https://bucket.justjoin.it/offers/company_logos/thumb/ad682810c46be531501736406cf05a7561e24dac.png?1586178950,"[{'name': 'HTML/CSS', 'level': 3}, {'name': 'AngularJS', 'level': 3}, {'name': 'JavaScript', 'level': 3}]"
175,Frontend Developer (Knockout/Angular),Borek Fałęcki Wschód,Kraków,PL,"Borek Fałęcki Wschód, Kraków",javascript,False,ITLT,http://www.itlt.pl,100,mid,11000.0,14000.0,pln,50.0100745,19.9344425,b2b,2020-05-12 14:00:06.790000+00:00,True,itlt-security-analyst-soc,https://bucket.justjoin.it/offers/company_logos/thumb/82b084ba1ff07ed03fbb485749bdc7a7086ca5d3.jpg?1586871347,"[{'name': 'CSS', 'level': 3}, {'name': 'HTML', 'level': 3}, {'name': 'JavaScript', 'level': 3}]"
176,Mid Python Developer,Naruszewicza 27,Warszawa,PL,"Naruszewicza 27, Warszawa",python,False,Property Group Sp. z o.o.,https://rynekpierwotny.pl/,60+,mid,8000.0,13000.0,pln,52.1906665,21.0177388,b2b,2020-05-12 14:00:06.790000+00:00,False,property-group-sp-z-o-o-mid-python-developer,https://bucket.justjoin.it/offers/company_logos/thumb/8e374456bd3d8e7242d512571b61b88e9efc19b6.png?1588857817,"[{'name': 'Django', 'level': 3}, {'name': 'Python', 'level': 4}]"
177,Mid Front End Developer,Naruszewicza 27,Warszawa,PL,"Naruszewicza 27, Warszawa",javascript,False,Property Group Sp. z o.o.,https://rynekpierwotny.pl/,60+,mid,9000.0,13000.0,pln,52.1906665,21.0177388,b2b,2020-05-12 14:00:06.790000+00:00,False,property-group-sp-z-o-o-mid-front-end-developer-warszawa,https://bucket.justjoin.it/offers/company_logos/thumb/60f1731740e171b059b04f6d82147a30954ff113.png?1588858515,"[{'name': 'CSS', 'level': 4}, {'name': 'React', 'level': 4}]"
178,SCCM Specialist,Piastów 30,Szczecin,PL,"Piastów 30, Szczecin",other,False,Coloplast Business Centre,http://www.cpbc.pl/,12000+,mid,7000.0,10000.0,pln,53.4182084,14.5313301,permanent,2020-05-12 14:00:06.790000+00:00,True,coloplast-business-centre-client-specialist-it-infrastructure,https://bucket.justjoin.it/offers/company_logos/thumb/f3274af7dcb3e4db99775907b548f99eb7c08a6d.jpg?1587995955,"[{'name': 'OS', 'level': 3}, {'name': 'SCCM (previously named)', 'level': 4}, {'name': 'Microsoft Endpoint Configuration Manager (MEMCM)', 'level': 4}]"
179,.NET Developer,Grunwaldzka 163,Gdańsk,PL,"Grunwaldzka 163, Gdańsk",net,False,Intitek Polska,http://Intitek Polska,100-200,mid,10000.0,18000.0,pln,54.3847329,18.5966741,b2b,2020-05-12 14:00:06.790000+00:00,True,intitek-polska-net-developer,https://bucket.justjoin.it/offers/company_logos/thumb/91879defb5c77bae014c5acb50837bec1014d3a5.png?1560330431,"[{'name': 'REST API', 'level': 3}, {'name': 'ASP.NET', 'level': 3}, {'name': 'MS SQL', 'level': 4}]"
180,Senior Scala Developer,Plac Europejski 1,Warszawa,PL,"Plac Europejski 1, Warszawa",scala,False,360 Code Lab,https://www.360codelab.com/,10 - 50,senior,20000.0,23000.0,pln,52.2322584,20.9842694,b2b,2020-05-12 14:00:06.790000+00:00,True,360-code-lab-senior-scala-developer,https://bucket.justjoin.it/offers/company_logos/thumb/8c2096a64f92ec69c89100f1c60e57f233d29a03.png?1572951048,"[{'name': 'Akka', 'level': 4}, {'name': 'JVM', 'level': 4}, {'name': 'Scala', 'level': 5}]"
181,Senior .NET Developer,Opolska 114,Kraków,PL,"Opolska 114, Kraków",net,False,KPMG,http://www.kpmg.pl,2000,senior,12000.0,16000.0,pln,50.0872791,19.9544973,permanent,2020-05-12 14:00:06.790000+00:00,True,kpmg-senior-net-developer,https://bucket.justjoin.it/offers/company_logos/thumb/b036b34afd60f2d8463783c260dcb3426f2dfd0f.jpg?1585836050,"[{'name': 'JavaScript', 'level': 3}, {'name': 'SQL Server', 'level': 5}, {'name': '.Net', 'level': 5}]"
182,Senior Python Developer,Naruszewicza 27,Warszawa,PL,"Naruszewicza 27, Warszawa",python,False,Property Group Sp. z o.o.,https://rynekpierwotny.pl/,60+,senior,12000.0,18000.0,pln,52.1906665,21.0177388,b2b,2020-05-12 14:00:06.790000+00:00,False,property-group-sp-z-o-o-senior-python-developer-warszawa,https://bucket.justjoin.it/offers/company_logos/thumb/89c0f8f9184e300b0eaa746552913715e7f46f9e.png?1588857331,"[{'name': 'OOP', 'level': 5}, {'name': 'Django', 'level': 5}, {'name': 'Python', 'level': 5}]"
183,UX Designer,Grabiszyńska 251a,Wrocław,PL,"Grabiszyńska 251a, Wrocław",ux,False,ANIXE,http://www.anixe.pl,150-200,mid,5000.0,10000.0,pln,51.096747,16.985475,permanent,2020-05-12 14:00:00+00:00,True,anixe-ux-designer-wroclaw,https://bucket.justjoin.it/offers/company_logos/thumb/d29b8c35613005fd7936060c247d4ab0cb544eda.png?1562833374,"[{'name': 'InVision', 'level': 3}, {'name': 'Sketch', 'level': 3}, {'name': 'UX', 'level': 4}]"
184,JavaScript Engineer,Czeczota 29,Warszawa,PL,"Czeczota 29, Warszawa",javascript,False,Ethworks,https://ethworks.io/,20,mid,8000.0,12000.0,pln,52.1955072,21.0155444,b2b,2020-05-12 14:00:00+00:00,False,ethworks-javascript-engineer,https://bucket.justjoin.it/offers/company_logos/thumb/007279ef9e98319c21f899e80fefda75e65c76a2.jpg?1587993038,"[{'name': 'React', 'level': 3}, {'name': 'TypeScript', 'level': 3}, {'name': 'Node.js', 'level': 3}]"
185,Junior PHP/Magento Developer ,Rubież 46,Poznań,PL,"Rubież 46, Poznań",php,False,Panda Group,https://pandagroup.co/,+24,junior,4000.0,6000.0,pln,52.4549764,16.9560456,b2b,2020-05-12 13:57:00+00:00,False,panda-group-junior-php-magento-developer-2c8fcfe9-406c-430e-a5ec-c4f1d4889f3a,https://bucket.justjoin.it/offers/company_logos/thumb/1fb35235e014d733dad9dc6398fc844c7aafb59d.jpg?1589291761,"[{'name': 'MySQL', 'level': 2}, {'name': 'PHP', 'level': 2}]"
186,International System Engineer,ul. Rzeźnicza 32-33,Wrocław,PL,"ul. Rzeźnicza 32-33, Wrocław",other,False,DataWalk,http://www.datawalk.com,<60,senior,13000.0,18000.0,pln,51.1107656,17.0279397,b2b,2020-05-12 13:39:00+00:00,True,datawalk-international-system-engineer,https://bucket.justjoin.it/offers/company_logos/thumb/5c411d35413f5d27aa837b118bca66dde3b27469.jpg?1589280043,"[{'name': 'Data Integration', 'level': 4}, {'name': 'SQL', 'level': 4}, {'name': 'Problem Solving', 'level': 5}]"
187,Level 3 Support Specialist,Rzeźnicza 32-33,Wrocław,PL,"Rzeźnicza 32-33, Wrocław",other,False,DataWalk,http://www.datawalk.com,<60,senior,3500.0,7000.0,pln,51.1107656,17.0279397,b2b,2020-05-12 13:07:00+00:00,True,datawalk-level-3-support-specialist,https://bucket.justjoin.it/offers/company_logos/thumb/0ba35e94bcbaaefdc2e16cd31e337d13d403f0e7.jpg?1587122848,"[{'name': 'Shell Scripting', 'level': 1}, {'name': 'Linux', 'level': 1}, {'name': 'SQL', 'level': 1}]"
188,Game Mathematician,Lubicz 17i,Kraków,PL,"Lubicz 17i, Kraków",java,False,Yggdrasil Gaming,https://yggdrasilgaming.com,220,mid,,,,50.0642994,19.9487817,permanent,2020-05-12 13:00:07.080000+00:00,True,yggdrasil-gaming-game-mathematician,https://bucket.justjoin.it/offers/company_logos/thumb/dbffbd4edf1feadefd217aed2a03289357b8ba18.png?1586359720,"[{'name': 'JavaScript', 'level': 1}, {'name': 'Java', 'level': 3}]"
189,Software Engineer in Tests,Lubicz 23A,Kraków,PL,"Lubicz 23A, Kraków",testing,False,Saba Software,https://www.saba.com/uk/,1400,mid,7000.0,11000.0,pln,50.0646719,19.9522573,permanent,2020-05-12 13:00:07.080000+00:00,True,saba-software-software-engineer-in-tests,https://bucket.justjoin.it/offers/company_logos/thumb/3ecb9022661633d4068fb63d7b7c238d6b299ea8.jpeg?1586264267,"[{'name': 'JavaScript', 'level': 2}, {'name': 'Java', 'level': 2}, {'name': 'SoapUI', 'level': 3}]"
190,Web Designer,pl. Wiosny Ludów 2,Poznań,PL,"pl. Wiosny Ludów 2, Poznań",ux,False,Recruitee,http://www.recruitee.com,100,mid,10000.0,13000.0,pln,52.405487,16.931796,b2b,2020-05-12 13:00:07.080000+00:00,True,recruitee-web-designer,https://bucket.justjoin.it/offers/company_logos/thumb/714d577ee6a8b0bdd0db6125a619f556e5b913c4.png?1587559432,"[{'name': 'JavaScript', 'level': 3}, {'name': 'UI Design', 'level': 3}, {'name': 'UX Design', 'level': 4}]"
191,JavaScript Developer,Stare Polesie,Łódź,PL,"Stare Polesie, Łódź",javascript,False,NBC,http://www.nbc.com.pl,400+,mid,16000.0,20000.0,pln,51.7671991,19.43885,b2b,2020-05-12 13:00:07.080000+00:00,True,nbc-javascript-developer-lodz,https://bucket.justjoin.it/offers/company_logos/thumb/9d1ef0c972cae71de85a2acdc3a6ca719afb9f4a.jpg?1587560314,"[{'name': 'CSS3', 'level': 4}, {'name': 'HTML5', 'level': 4}, {'name': 'JavaScript', 'level': 4}]"
192,PHP/Prestashop Developer,Oławska 27/29,Wrocław,PL,"Oławska 27/29, Wrocław",php,True,Fast White Cat,http://www.fastwhitecat.com,70,mid,7000.0,10000.0,pln,51.1081049,17.0363529,b2b,2020-05-12 13:00:07.080000+00:00,True,fast-white-cat-php-prestashop-developer,https://bucket.justjoin.it/offers/company_logos/thumb/a362e0529a9769ed67e1cdcd4da9834791b362ed.png?1587990350,"[{'name': 'MySQL', 'level': 3}, {'name': 'JIRA', 'level': 3}, {'name': 'PHP 7', 'level': 4}]"
193,Remote Senior Django Developer,Jana Pawła II,Warszawa,PL,"Jana Pawła II, Warszawa",python,True,iRonin.IT,http://www.ironin.it,30,senior,14000.0,20000.0,pln,52.2452495,20.9908202,b2b,2020-05-12 13:00:07.080000+00:00,True,ironin-it-remote-senior-django-developer-asap,https://bucket.justjoin.it/offers/company_logos/thumb/a5555836848dc8e8a230031bc2f346c2e7a95880.png?1587990788,"[{'name': 'Python', 'level': 5}, {'name': 'Django', 'level': 5}]"
194,SQL Developer,Cystersów,Kraków,PL,"Cystersów, Kraków",data,False,GGS IT Consulting,http://www.ggsitconsulting.com,40-50,mid,8000.0,14000.0,pln,50.0641556,19.9699627,b2b,2020-05-12 13:00:07.080000+00:00,True,ggs-it-consulting-sql-developer-krakow,https://bucket.justjoin.it/offers/company_logos/thumb/257956a516f486a4f9a6f64470d71f06ab44d15b.png?1560248105,"[{'name': 'TSQL', 'level': 4}, {'name': 'SQL', 'level': 4}, {'name': 'English', 'level': 4}]"
195,Magento Developer - Mid level,Miłkowskiejgo 5/7,Kraków,PL,"Miłkowskiejgo 5/7, Kraków",php,True,Strix,http://strix.net,80-100,mid,7000.0,11000.0,pln,50.0273901,19.9200381,b2b,2020-05-12 13:00:07.080000+00:00,True,strix-php-developer,https://bucket.justjoin.it/offers/company_logos/thumb/5fceedda0f84d3246623757c7930921b4a2a51a1.png?1557299720,"[{'name': 'Git', 'level': 3}, {'name': 'Magento 2', 'level': 4}, {'name': 'PHP 7', 'level': 4}]"
196,Mobile Developer,Stockholms ian,Stockholm,SE,"Stockholms ian, Stockholm",mobile,True,ITCraftship,https://www.itcraftship.com,11,mid,12000.0,16000.0,pln,59.3621737,18.057831,b2b,2020-05-12 13:00:07.080000+00:00,False,itcraftship-mobile-developer,https://bucket.justjoin.it/offers/company_logos/thumb/e06a131d4f9da2fe58d9c3ac8fdb8805268852c2.png?1587992014,"[{'name': 'Mobile', 'level': 3}, {'name': 'Swift', 'level': 4}, {'name': 'iOS', 'level': 4}]"
197,Fullstack Developer,Zajęcza,Warszawa,PL,"Zajęcza, Warszawa",java,False,SHIMI,http://www.shimi.pl,<10,senior,12000.0,18000.0,pln,52.2390132,21.0274757,permanent,2020-05-12 13:00:07.080000+00:00,True,shimi-fullstack-developer,https://bucket.justjoin.it/offers/company_logos/thumb/c8caddc6f9fdb74a0beb14c5989b10c7154bdd7a.jpg?1585831945,"[{'name': 'Spring 4', 'level': 4}, {'name': 'Angular 7', 'level': 4}, {'name': 'Java 8', 'level': 4}]"
198,QA Engineer,Lubicz 17i,Kraków,PL,"Lubicz 17i, Kraków",testing,False,Yggdrasil Gaming,https://yggdrasilgaming.com,220,mid,,,,50.0642994,19.9487817,permanent,2020-05-12 13:00:07.080000+00:00,True,yggdrasil-gaming-qa-engineer,https://bucket.justjoin.it/offers/company_logos/thumb/f8508db79845164686b559b5723fca6b185ff691.png?1586347526,"[{'name': 'SQL', 'level': 3}, {'name': 'Test Automation', 'level': 3}, {'name': 'Java', 'level': 3}]"
199,Junior Java Developer,Marynarska 14,Warszawa,PL,"Marynarska 14, Warszawa",java,False,Release11 Sp. z o.o.,http://release11.com,20,junior,4000.0,4500.0,pln,52.1814989,20.9925161,b2b,2020-05-12 13:00:07.080000+00:00,True,release11-sp-z-o-o-junior-java-developer,https://bucket.justjoin.it/offers/company_logos/thumb/ba15cadbadccbbc3a1a998d473f05fb58b6d38f0.png?1587559551,"[{'name': 'Java', 'level': 2}]"
200,Ruby Developer,Przemysłowa 12,Kraków,PL,"Przemysłowa 12, Kraków",ruby,False,DataFeedWatch,https://www.datafeedwatch.com/,45-50,mid,10000.0,15000.0,pln,50.0482228,19.9594464,b2b,2020-05-12 13:00:07.080000+00:00,True,datafeedwatch-ruby-developer-krakow,https://bucket.justjoin.it/offers/company_logos/thumb/28a1f0b54491c946b4bf85a67dc5e159eaf76b58.png?1570095057,"[{'name': 'MongoDB', 'level': 3}, {'name': 'Ruby on Rails', 'level': 4}, {'name': 'Ruby', 'level': 4}]"
201,.NET Developer,Bukowińska 22B,Warszawa,PL,"Bukowińska 22B, Warszawa",net,False,Primaris,https://primaris.eu/,130+,junior,10000.0,12000.0,pln,52.1823233,21.0253869,b2b,2020-05-12 13:00:07.080000+00:00,True,primaris-net-developer-warszawa,https://bucket.justjoin.it/offers/company_logos/thumb/c3318575b9703533caec2a48fa03f74fcae31622.png?1588854215,"[{'name': 'CSS', 'level': 3}, {'name': 'Angular', 'level': 3}, {'name': '.NET Core', 'level': 3}]"
202,Sr Java Developer (Relocation - Gdańsk),Centrum,Warszawa,PL,"Centrum, Warszawa",java,False,Spartez,http://www.spartez.com,150-200,senior,17000.0,22000.0,pln,52.232314,21.008669,permanent,2020-05-12 13:00:00+00:00,True,spartez-sr-java-developer-relocation-gdansk,https://bucket.justjoin.it/offers/company_logos/thumb/5126189aca2d0166818c22d01b3b077126d13f14.png?1587992085,"[{'name': 'Git', 'level': 3}, {'name': 'English', 'level': 4}, {'name': 'Java', 'level': 5}]"
203,Sr Java Developer (Relocation - Gdańsk),Centrum,Łódź,PL,"Centrum, Łódź",java,False,Spartez,http://www.spartez.com,150-200,senior,17000.0,22000.0,pln,51.7709492,19.4617189,permanent,2020-05-12 13:00:00+00:00,True,spartez-senior-java-developer-lodz,https://bucket.justjoin.it/offers/company_logos/thumb/a64146ad4256322c4730af4950c3dd6626102140.png?1587992243,"[{'name': 'Git', 'level': 3}, {'name': 'English', 'level': 4}, {'name': 'Java', 'level': 5}]"
204,Sr Java Developer (Relocation - Gdańsk),Centrum,Poznań,PL,"Centrum, Poznań",java,False,Spartez,http://www.spartez.com,150-200,senior,17000.0,22000.0,pln,52.4093634,16.9317991,permanent,2020-05-12 13:00:00+00:00,True,spartez-senior-java-developer-poznan,https://bucket.justjoin.it/offers/company_logos/thumb/b195409776ede90f17fa40114140046c4d6337ef.png?1587992211,"[{'name': 'Git', 'level': 3}, {'name': 'English', 'level': 4}, {'name': 'Java', 'level': 5}]"
205,IT Security Architect/ Consultant,grunwaldzka 472 c,Gdańsk,PL,"grunwaldzka 472 c, Gdańsk",security,False,Atena,https://www.atena.pl/,500+,senior,,,,54.4035824,18.5709355,permanent,2020-05-12 12:49:00+00:00,True,atena-it-security-architect-consultant,https://bucket.justjoin.it/offers/company_logos/thumb/ee57e6543a46bb2e2d90a0860314066ba0b1e174.PNG?1589287736,"[{'name': 'IT Security', 'level': 5}, {'name': 'Security', 'level': 5}]"
206,Frontend JavaScript Developer,Łużyczan,Lublin,PL,"Łużyczan, Lublin",javascript,True,Trimetis Services,http://www.trimetis.com,50,senior,12000.0,17600.0,pln,51.2533289,22.4961244,b2b,2020-05-12 12:33:00+00:00,True,trimetis-services-frontend-javascript-developer,https://bucket.justjoin.it/offers/company_logos/thumb/fa894d5d3a5df6f44169c064d8c75925b86d0e2d.jpg?1589286755,"[{'name': 'Angular', 'level': 4}, {'name': 'TypeScript', 'level': 4}, {'name': 'JavaScript', 'level': 4}]"
207,Python Engineer,Kieturakisa,Gdańsk,PL,"Kieturakisa, Gdańsk",python,False,Brain Scan,https://brainscan.ai/,30,senior,9000.0,15000.0,pln,54.3409011,18.6585832,b2b,2020-05-12 12:24:00+00:00,False,brain-scan-python-engineer,https://bucket.justjoin.it/offers/company_logos/thumb/6303dc92074e8ef80770bb7869f38aed29179bb0.png?1589286235,"[{'name': 'Git', 'level': 3}, {'name': 'Linux', 'level': 3}, {'name': 'Python', 'level': 4}]"
208,DevOps Engineer,Rzeźnicza 32-33,Wrocław,PL,"Rzeźnicza 32-33, Wrocław",devops,False,DataWalk,http://www.datawalk.com,<60,senior,12000.0,18000.0,pln,51.1107656,17.0279397,b2b,2020-05-12 12:21:00+00:00,True,datawalk-full-stack-developer,https://bucket.justjoin.it/offers/company_logos/thumb/aab82c053d0de75760e17c3437bc37ca5c3b7c4c.jpg?1561715322,"[{'name': 'REST', 'level': 4}, {'name': 'Spring', 'level': 4}, {'name': 'Java 8', 'level': 4}]"
209,Laravel Full Stack Developer,Grzegorza Piramowicza 11/13,Łódź,PL,"Grzegorza Piramowicza 11/13, Łódź",php,False,Polcode,http://www.polcode.com,130+,mid,6000.0,12000.0,pln,51.7720533,19.4644654,b2b,2020-05-12 12:00:06.890000+00:00,True,polcode-laravel-full-stack-developer,https://bucket.justjoin.it/offers/company_logos/thumb/512f4bc9bf87814c596faa8b55b4a453781296dc.png?1562680444,"[{'name': 'Laravel', 'level': 4}, {'name': 'English', 'level': 4}, {'name': 'CSS / HTML', 'level': 4}]"
210,Product Designer,Przyrynek 14,Warszawa,PL,"Przyrynek 14, Warszawa",ux,True,Survicate,http://www.survicate.com,25+,mid,6000.0,9000.0,pln,52.255024,21.00827,b2b,2020-05-12 12:00:06.890000+00:00,True,survicate-product-designer,https://bucket.justjoin.it/offers/company_logos/thumb/d8fe46c48d4c83661564c845015458cb399ac689.png?1518447445,"[{'name': 'UXPin', 'level': 3}, {'name': 'Adobe XD', 'level': 3}, {'name': 'Photoshop / Sketch', 'level': 3}]"
211,Mobile developer,Al. Jerozolimskie 142b,Warszawa,PL,"Al. Jerozolimskie 142b, Warszawa",mobile,False,SynHRoner,http://www.synchroner.com/,10,mid,12000.0,20000.0,pln,52.218995,20.966843,b2b,2020-05-12 12:00:06.890000+00:00,True,ewl-s-a-mobile-developer,https://bucket.justjoin.it/offers/company_logos/thumb/6c94a0b6a5a64462f797dd10e576c6b754f0cc66.png?1586952996,"[{'name': 'Cordova', 'level': 4}, {'name': 'CSS3', 'level': 4}, {'name': 'HTML5', 'level': 4}]"
212,Specjalista ds. SAP FI/CO,ul. Szczytnicka 11,Wrocław,PL,"ul. Szczytnicka 11, Wrocław",sap,False,KPMG,http://www.kpmg.pl,2000,mid,8000.0,14000.0,pln,51.11328,17.0521069,b2b,2020-05-12 12:00:06.890000+00:00,True,kpmg-specjalista-ds-sap-fi-co,https://bucket.justjoin.it/offers/company_logos/thumb/8cddc7859815c7887915356d3a95c04a56b1fab3.jpg?1586239866,"[{'name': 'SAP CO', 'level': 4}, {'name': 'SAP FI', 'level': 4}, {'name': 'SAP', 'level': 4}]"
213,Node.js Developer,Komandorska 12,Wrocław,PL,"Komandorska 12, Wrocław",javascript,False,Better Software Group S.A.,https://bsgroup.eu/,80+,mid,10000.0,15000.0,pln,51.1000899,17.0311999,b2b,2020-05-12 12:00:06.890000+00:00,False,better-software-group-s-a-node-js-developer,https://bucket.justjoin.it/offers/company_logos/thumb/f75fba9980e19b074743adc5f1a4b761ee410889.png?1575288467,"[{'name': 'Node.js', 'level': 3}, {'name': 'English', 'level': 4}, {'name': 'JavaScript', 'level': 4}]"
214,Laravel Full Stack Developer,Grójecka 1/3,Warszawa,PL,"Grójecka 1/3, Warszawa",php,True,Polcode,http://www.polcode.com,130+,mid,6000.0,12000.0,pln,52.2234107,20.9881385,b2b,2020-05-12 12:00:06.890000+00:00,True,polcode-magento-developer,https://bucket.justjoin.it/offers/company_logos/thumb/2a858ea9d9dca1fa866da8c35be11193c4109a0f.png?1515577670,"[{'name': 'Laravel', 'level': 4}, {'name': 'English', 'level': 4}, {'name': 'CSS / HTML', 'level': 4}]"
